shop_id,name,branchname,alt_name,phone,regionname,address,cross_road,big_category,small_category,longitude,latitude
1608151.0,东风日产森宝专营店,森宝专营店,,82876229,萧山区,市心北路,,爱车,爱车,120.26916,30.21896
1609222.0,汇文书店,,,82815935,萧山区,市心北路剧院1楼,,购物,书店音像,120.254473,30.23575
2276134.0,浅醉坊餐厅,,,,萧山区,市心北路737号51风尚酒店内,,美食,粤菜馆,120.2682,30.216795
2310277.0,51风尚酒店中餐厅,,,82869999,北干,市心北路737号,,美食,浙菜,120.264538,30.219811
2670130.0,鸿伟大排档,,,82816580,萧山区,市心北路,近国税局,美食,浙菜,120.254473,30.23575
2912638.0,开元之江清洗,佳境天城店,,,萧山区,佳境天城门口,振宁路边,生活服务,更多生活服务,120.268177,30.220929
3825721.0,中国农业银行,盈丰分理处,,95599,萧山区,宁围镇盈丰街,,生活服务,营业网点,120.258235,30.234343
4156091.0,市心北路浴室,,,,萧山区,市心北路,,休闲娱乐,洗浴/汗蒸,120.26687,30.228495
5490504.0,笑眯眯婴葆园,,,82629895;28982888,萧山区,宁围镇佳境天城佳境街35-36号,近佳境天城幼儿园,生活服务,更多生活服务,120.267179,30.216581
5603962.0,东之艺形象化妆艺术培训,,,82871257,萧山区,市心北路恒逸南明珠广场1栋2单元,近萧山飞机场,教育培训,美妆从业,120.266871,30.228496
6280749.0,萧山农村合作银行24小时自助银行,,,,市心北路,市心北路835号,,生活服务,ATM自助网点,120.267799,30.218607
6281987.0,萧山农村合作银行,盈丰分理处,,82865160,市心北路,盈丰街2号,,生活服务,营业网点,120.260529,30.234329
6281995.0,萧山农村合作银行,新城支行,,,萧山区,市心北路825号,,生活服务,营业网点,120.26778,30.218613
6316055.0,市心药店,,,,萧山区,盈丰街32号,盈丰医院南,医疗健康,药店,120.25987,30.234187
6321810.0,宁围镇丰二社区卫生服务站,,,,萧山区,丰二村422,,医疗健康,社区医院,120.25394,30.22128
6322320.0,盈丰医院,,,82834637,萧山区,盈丰街26号,,医疗健康,综合医院,120.25959,30.23447
6322321.0,杭州华联超市,,,18867130069,市心北路,盈丰街6号,,购物,超市/便利店,120.26037,30.23438
6505669.0,中国邮政储蓄银行ATM,盈丰支行,,,萧山区,盈丰街1号,,生活服务,ATM自助网点,120.260421,30.234056
6506311.0,中国农业银行ATM,盈丰分理处网点,,,萧山区,萧钱线,,生活服务,ATM自助网点,120.258217,30.234336
6512884.0,萧山农村合作银行,宁围分理处,,,萧山区,振宁路,,生活服务,营业网点,120.26235,30.215565
6543897.0,乐惠多超市,,,,萧山区,鹏起路,合丰村卫生室东北,购物,超市/便利店,120.243484,30.221209
6546050.0,世纪华联超市,,,,萧山区,鸿宁路,,购物,超市/便利店,120.26051,30.236397
6546075.0,丰盛超市,,,82690460,市心北路,振宁路400号430号,,购物,超市/便利店,120.26807,30.21549
6546085.0,乐惠多超市丰东店,,,,北干,合丰四路,,购物,超市/便利店,120.264684,30.22006
6547816.0,上海联都超市,,,,萧山区,盈丰街2号,盈丰医院东南,购物,超市/便利店,120.261526,30.233739
6547824.0,上海青远超市盈丰店,,,,萧山区,萧钱线,,购物,超市/便利店,120.258214,30.234722
6547919.0,世纪华联,,,,萧山区,市心北路317号461号,建伟大厦北,购物,超市/便利店,120.26805,30.219639
6552379.0,久达信超市,,,,吴山广场/河坊街,流金广场,,购物,超市/便利店,120.267455,30.216837
6552386.0,康洁副百商行,,,82628279,市心北路,市心北路829号,,购物,超市/便利店,120.268029,30.21885
6552389.0,喜士多便利店,,,,吴山广场/河坊街,流金广场,市心北路加油站-机场高速上口处,购物,超市/便利店,120.267972,30.216605
8014412.0,自然美全方位美容美体中心,振宁路店,Natural Beauty,82658561,萧山区,振宁路859号,,丽人,美容/SPA,120.265858,30.215647
8051701.0,郑远元专业修脚房,振宁路店,,13777359444,萧山区,振宁路852号,近佳境天城幼儿园,休闲娱乐,按摩/足疗,120.26603,30.21594
9068234.0,新阿里芭芭娱乐城KTV,,,18668050908,北干,市心北路789号,开元明都对面,休闲娱乐,娱乐会所,120.26881,30.21798
9200691.0,远东大食堂,,,,萧山区,宁围镇盈一村鸿宁路,,美食,快餐简餐,120.26373,30.236266
9208290.0,盈丰饭店,萧钱线店,,,萧山区,萧钱线,,美食,浙菜,120.258174,30.227387
10009791.0,西北牛肉面,,,,萧山区,振宁路868,近市心北路,美食,面馆,120.26591,30.21611
10487087.0,国色天香酒家,,,13989821382,萧山区,振宁路933号,,美食,浙菜,120.264144,30.21583
10487112.0,尝来尝往土菜馆,,,13777436550,萧山区,市心北路563号,,美食,农家菜,120.26921,30.21394
10966789.0,萧山管道燃气发展有限公司,,,,萧山区,宁围振宁路803号,,生活服务,公司企业,120.267899,30.215396
10967013.0,萧山区世纪飞虹幼儿园,顺丰家园园区,,85123601,萧山区,文明路580号,,教育培训,幼儿园,120.26244,30.21355
10967021.0,宁围镇丰北村便民服务中心,,,82694502,市心北路,萧钱线与鸿宁路交叉口南150米,,生活服务,公司企业,120.258186,30.235718
10967253.0,萧山图书馆,合丰村分馆,,,萧山区,合丰北,,休闲娱乐,图书馆,120.243088,30.218636
10967598.0,市宁围综合高级中学,,,,市心北路,萧钱线,,教育培训,高中,120.258194,30.232591
10967604.0,盈丰电脑,,,82864273,市心北路,市心北路1808号,,购物,数码产品,120.26014,30.23318
10967999.0,华林烟酒,,,,市心北路,盈丰街,盈丰医院东,购物,烟酒茶叶,120.261923,30.234019
10968003.0,宁围镇合丰村星光老年之家,,,,萧山区,合丰北,,休闲娱乐,老年活动中心,120.24309,30.219065
10968369.0,现代电动车有限公司,,,,萧山区,丰盈线附近,,购物,自行/电动车及配件,120.26402,30.23627
10968620.0,合丰村老年活动室,,,,萧山区,合丰村142号,,休闲娱乐,老年活动中心,120.243402,30.218871
10968642.0,丰二小学,,,,萧山区,金鸡路,,教育培训,小学,120.253907,30.221888
10968689.0,丰二村肥药站,,,,萧山区,金鸡路附近,,医疗健康,药店,120.25397,30.22119
10968795.0,迪邦漆,,,,市心北路,盈丰街2号附近,萧山区宁围镇盈一社区卫生服务站西南,家装,油漆涂料,120.26221,30.233879
10968902.0,丰北村幼儿园,,,,市心北路,萧钱线奥体国际村旁,,教育培训,幼儿园,120.258056,30.231876
10968981.0,烫染王国,,,,市心北路,市心北路,杭州市萧山区宁围镇盈一村南,丽人,美发,120.265142,30.233345
10969010.0,幸福时代培训辅导中心,,,,萧山区,文明路468号,,教育培训,中小学综合辅导,120.268364,30.212793
10969045.0,得意美容美发厅,,,13396545504,萧山区,宁围镇盈丰街33号,,丽人,SPA美体,120.259125,30.234273
10969048.0,盈丰阿华快修,,,,萧山区,鸿宁路附近,,爱车,维修保养,120.25978,30.2365
10969206.0,纤韵美容美体生活馆,盈丰分店,,15715740387,市心北路,盈丰街680,,丽人,SPA美体,120.262329,30.233547
10969227.0,宁围镇成人文化技术学校,,,,萧山区,萧钱线,,教育培训,其他职业培训,120.258198,30.232595
10969502.0,365天天商务酒店,市心北路店,,82706868;13588713521,市心北路,市心北路与振宁路交叉口西100米路南,家境天城对面,酒店,经济型,120.268192,30.215344
10969646.0,鸿星尔克,,,,市心北路,盈丰街15号,,购物,运动户外,120.259703,30.234143
10969652.0,萧山市宁围镇中心辅导学校,,,82839660,市心北路,丰北村190,,教育培训,中小学综合辅导,120.25796,30.23276
10969677.0,盈丰阿牛商店酒类批发,,,82690783,萧山区,盈丰街6号,,购物,烟酒茶叶,120.260459,30.234352
10969915.0,丰东幼儿园,,,,萧山区,机场公路高速,,亲子,幼儿园,120.262665,30.221022
10970328.0,育翔教育,,,13967147637,萧山区,振宁路965号2楼,,教育培训,中小学综合辅导,120.26334,30.215598
10970535.0,丰二村幼儿园,,,,萧山区,丰二村715号,,亲子,幼儿园,120.253643,30.22188
10970574.0,南方型钢,,,,市心北路,萧钱线,,家装,家用五金,120.258154,30.230655
10970612.0,宁围镇社区教育中心,,,,萧山区,萧钱线,,教育培训,其他院校,120.258177,30.232577
10970631.0,萧山区宁围镇第三小学,,萧山区宁围镇三小,,萧山区,外环西路,,教育培训,小学,120.261583,30.225525
10970781.0,钱江世纪城规划展馆,,,,市心北路,市心北路845号,,景点,展馆展览,120.268136,30.219364
10970937.0,茗迪网吧,,,13386507915,萧山区,文明路468号,,休闲娱乐,网吧/电竞,120.268642,30.21266
10971003.0,新天龙男装,,,,市心北路,盈丰街23号,,购物,服装,120.25935,30.234283
10971152.0,盈丰电脑培训指定点,,,82864273,市心北路,盈一村438号,,教育培训,IT/互联网,120.266214,30.232893
10971305.0,凤英副食批发部,,,,萧山区,广场路,,美食,更多食品保健,120.258273,30.234722
10971355.0,易帆电机,,,,萧山区,鸿宁路附近,,购物,办公/文化用品,120.260244,30.236463
10971428.0,佳境艺术馆,,,82603995,萧山区,市心北路793号,,景点,美术馆,120.268396,30.217896
10971446.0,顺发门业,,,,萧山区,宁围镇文明路510号,,家装,门窗,120.266534,30.212894
10971476.0,中国邮政服务站,,,,萧山区,合丰四路,近振宁路,生活服务,物流快递,120.262539,30.2156
10972060.0,顺发恒业空间艺术馆,,,,萧山区,市心北路和飞虹路交叉口和美家旁,,景点,美术馆,120.263019,30.229137
10972228.0,华林烟行,,,13157139439,萧山区,钱江世纪城振宁路973、975号,,购物,烟酒茶叶,120.263105,30.215623
10972327.0,新世纪名剪,,,,萧山区,盈丰街1号,,丽人,美发,120.26135,30.233764
10972709.0,盈丰农副产品综合市场,,,,市心北路,盈丰街2号附近,,美食,水果生鲜,120.260553,30.235423
10972807.0,佳境天城幼儿园,,,82607516,市心北路,振宁路788号,,教育培训,幼儿园,120.26731,30.216022
13708914.0,萧洁车服汽车美容养护,,,15158809576,萧山区,宁围镇振宁路1467号-1471号，丰瑞南苑北大门,近江宁大厦,爱车,美容洗车,120.251663,30.214679
13896138.0,上海恒协干洗连锁,,,82231543,萧山区,振宁路846号,,生活服务,洗衣店,120.26623,30.21603
14003229.0,杭州宝信宝马4S店,市心北路店,,22689999,市心北路,心北路589号,,爱车,4S店,120.268717,30.214481
14004285.0,星世纪美发沙龙,,,,市心北路,盈一村659号附近,,丽人,美发,120.26134,30.23399
14004286.0,盈一幼儿园,,,82691589,萧山区,盈一村775号,,亲子,幼儿园,120.26151,30.23586
14004501.0,克丽缇娜,佳境店,,82879515,北干,振宁路768号,幼儿园向西50米,丽人,美容/SPA,120.266471,30.216028
14004504.0,峰尚精剪烫染,,,13606813202;15230818401,萧山区,振宁路848-850号,,丽人,美发,120.26616,30.21602
14004505.0,敬轩烫染造型,,,13989896983,萧山区,振宁路小吃旁,,丽人,美发,120.26357,30.215611
14175018.0,芭芭啦摄影,市心北路店,,4008605506-2764,北干,市心北路777号顺发和美家小区2幢2单元102室,,结婚,个性写真,120.26885,30.21783
14303321.0,中石化碧辟市北加油站,,,82835525;82606989,市心北路,市心北路659号与振宁路交叉处丰盛大厦旁,丰盛大厦东南,爱车,加油站,120.269073,30.215202
14303484.0,玉球翡翠,,,,北干,佳境街45号,,结婚,更多珠宝首饰,120.26655,30.216148
14304084.0,宁围镇三小,,,,萧山区,机场北辅路,,教育培训,小学,120.26176,30.22537
14304576.0,车之缘汽车美容装潢护理,,,,萧山区,鸿宁路,,爱车,美容洗车,120.26061,30.23648
14306070.0,盈丰汽车修理轮胎专卖,,,,市心北路,鸿宁路附近万向中学南门,,爱车,维修保养,120.25981,30.23651
14612523.0,摩托车电动车大卖场,,,,市心北路,盈丰街,,爱车,摩托车,120.260178,30.234079
14929287.0,盛丰立忠食品商店,,,,市心北路,盈丰街56-58号,,美食,更多食品保健,120.258976,30.234681
14936314.0,悦来悦便利,振宁路店,,,市心北路,市心北路589号旁,近振宁路,购物,超市/便利店,120.26889,30.21518
15047429.0,喜乐堂药店,盈一店,,,市心北路,盈丰街30号,,医疗健康,药店,120.259377,30.234577
15327636.0,杭州华联,佳境店,,,市心北路,佳境街26号,,购物,超市/便利店,120.267362,30.216792
15328458.0,唯美便利超市,,,,市心北路,广场路附近,,购物,超市/便利店,120.258114,30.236511
15328663.0,祐驿站,佳境街店,,83522124,北干,宁围镇佳镜街19.20号,市心北路加油站-机场高速上口处,购物,超市/便利店,120.269191,30.22254
15329714.0,广鸿堂大药房,,,82871598,市心北路,市心北路501号,,医疗健康,药店,120.268913,30.2127
15329794.0,宏婕药房,,,82696251,市心北路,文明路461号,,医疗健康,药店,120.26873,30.212692
15329897.0,佳德药房,,,82833933,萧山经济开发区,金二社区404号附近,,医疗健康,药店,120.263031,30.213071
15330299.0,仁贤堂药店,,,,北干,振宁路860862864号,,医疗健康,药店,120.265972,30.215993
15330346.0,胜利大药房,,,,市心北路,宁围镇盈丰街道10号,,医疗健康,药店,120.260239,30.234385
15330750.0,新合作医药连锁,振宁大药房店,,82821012,萧山区,振宁路老北京布鞋西30米,近振宁大药房,医疗健康,药店,120.265739,30.215622
15331388.0,合丰村卫生室,,,,萧山区,博奥路与扬帆路交叉口西北150米,,医疗健康,社区医院,120.243058,30.221078
15331693.0,丰东社区卫生服务站,,,18057161957,萧山区,振宁路971号,,医疗健康,社区医院,120.26321,30.21561
15331695.0,宁围镇合丰社区卫生服务站,,,,萧山区,合丰村445,,医疗健康,社区医院,120.243088,30.21932
15331697.0,宁围镇利一社区卫生服务站,,,,钱江世纪城,博奥路与鹏起路交叉口东北100米,,医疗健康,社区医院,120.244757,30.226871
15331705.0,宁围镇社区卫生服务中心,文明路店,,,萧山经济开发区,幸福时代公寓,近文明路,医疗健康,社区医院,120.266748,30.212646
15331710.0,宁围镇盈一社区卫生服务站,,,18057161452,萧山区,宁围镇,,医疗健康,社区医院,120.264144,30.23534
15332107.0,悬壶门诊部,,,,市心北路,振宁路807号,,医疗健康,综合门诊,120.267593,30.215456
15949570.0,玄川日本料理,萧山店,,87210517;87212517,市心北路,市心北路2000号,近湖滨路凯悦酒店旁，原江户前店,美食,寿司,120.256696,30.235051
15954289.0,思歌指纹锁,,,18067932869,萧山区,合丰四路,,购物,数码产品,120.266114,30.217483
16060030.0,中国电信,盈丰营业厅,,,萧山区,盈丰街1号,,生活服务,电信营业厅,120.260447,30.234033
16104669.0,百德利整体橱柜,,,83238908,萧山区,振宁路839号,,家装,橱柜,120.266622,30.215597
16108118.0,百乡缘直营菜场,,,83731717,市心北路,宁围镇振宁路809号,,美食,水果生鲜,120.26748,30.21551
16196784.0,福建武夷山土特产,,,82870759,萧山区,振宁路837号,,美食,更多食品保健,120.266694,30.215541
16218581.0,广鸿堂大药房,,,82871598,萧山区,文明路458号附近,,医疗健康,药店,120.26891,30.2127
16236775.0,好搭档洗衣,,,13676682779,市心北路,佳境街31号,,生活服务,洗衣店,120.267227,30.21664
16266201.0,花样空间,,,82787588,市心北路,文明路458号附近,,家装,其他家具家居,120.269036,30.213022
16293693.0,佳境窗帘,,,13588378235,萧山区,宁围镇振宁路943号,,家装,窗帘,120.263917,30.215625
16368001.0,老北京布鞋,,,,萧山区,振宁路849号,,购物,鞋靴,120.266065,30.21558
16438808.0,宁围镇丰东社区卫生站,,,,萧山区,振宁路971号,,医疗健康,社区医院,120.26328,30.215619
16438810.0,宁围镇丰二社区卫生站,,,,萧山区,丰二村422号,,医疗健康,社区医院,120.253835,30.221372
16478126.0,全佳超市,,,,市心北路,佳境街23号,,购物,超市/便利店,120.267265,30.216632
16480617.0,人合副食品店,,,82864581,萧山区,振宁路847号,,美食,更多食品保健,120.266157,30.215572
16482836.0,仁贤堂药店,,,,萧山区,振宁路860862864号,,医疗健康,药店,120.265972,30.215993
16519350.0,世纪先锋超市,,,,市心北路,盈一村621号附近,,购物,超市/便利店,120.264796,30.233016
16566894.0,万可商行,,,83876686,萧山区,振宁路856号,,美食,更多食品保健,120.266042,30.216001
16614914.0,新合作医药连锁振宁大药房,,,13567160698,萧山区,振宁路867号,,医疗健康,药店,120.265629,30.215611
16641743.0,悬壶中医门诊部,,,85319589,萧山区,振宁路807,,医疗健康,综合门诊,120.26759,30.2155
16681669.0,佑驿站,,,,萧山区,佳境街19号,,购物,超市/便利店,120.267798,30.217215
16896690.0,花样空间,,,82787588,北干,文明路458号附近,,家装,其他家具家居,120.268934,30.213087
16896806.0,中国农业银行,,,82690181,市心北路,市心北路793号,,生活服务,营业网点,120.268525,30.217989
16896812.0,田园茶庄,,,13867108195,市心北路,心北路785号,,休闲娱乐,茶馆,120.26854,30.21784
17332855.0,豪爵铃木专卖店,,,82873315,萧山区,盈丰街23号,,爱车,爱车,120.25946,30.23428
17346391.0,鸿星尔克,盈丰专卖店,,82863308,萧山区,宁围镇盈丰街15号,,购物,其他服饰鞋包,120.259724,30.234154
17360927.0,P天合苑地下停车库,,,,市心北路,振宁路862号附近,市心北路加油站-机场高速上口处,爱车,停车场,120.26726,30.216364
17450890.0,起点广告,,,,市心北路,文明路477号,,生活服务,图文快印,120.26791,30.212843
17492463.0,堂雅房产,,,82633898,北干,佳境街4号,,生活服务,房产中介,120.26832,30.21759
17622128.0,传世骨头饭,佳境天城店,,82635017,萧山区,振宁路862号佳境天城成合苑南门,,美食,黄焖鸡,120.26606,30.21611
17667903.0,诸暨面馆,,,,萧山区,邱山大街,电信对面,美食,面馆,120.26101,30.23257
18017987.0,顺发,,,15869142293;13819499213,市心北路,宁围镇佳境天城境合苑7栋901室,,生活服务,更多生活服务,120.268188,30.217552
18149314.0,Tita婚纱摄影,,,82558510;18072973581,北干,钱江世纪城飞虹路1227号,丰瑞北苑附近,结婚,工作室,120.249678,30.224185
18151519.0,黄焖鸡米饭,,,82635017,北干,宁围镇振宁路941号,近佳境天城,美食,快餐简餐,120.26575,30.216029
18320312.0,天天好搬家,萧山区店,天天好搬家,63603761,市心北路,市心北路和建设一路口附近,杭州市萧山区人民广场,生活服务,更多生活服务,120.267218,30.227783
18545823.0,萧山三店,,,83887777,市心北路,市心北路华瑞广场38号,,美食,火锅,120.269146,30.217254
18568529.0,巴比馒头,,,,萧山区,振宁路852号,,美食,包子,120.266163,30.216024
18967612.0,五丰冷食,宁围经营部,,82872826,萧山区,振宁路顺丰家园底商,顺风家园边,美食,更多食品保健,120.264466,30.21559
19589322.0,杭州搬家,,家政搬家,87527577,市心北路,市心北路飞虹路交叉口,靠近盈一村,生活服务,其他家政,120.262669,30.229137
19597083.0,趣美美甲美睫纹绣,,,82838621;13750835769,市心北路,振宁路772号克丽缇娜旁,,丽人,美睫,120.268161,30.216045
19607293.0,嘿客,佳境天城店,,15024493037,市心北路,佳境天城佳境街26号,"51风尚酒店后,佳境天城幼儿园旁",购物,超市/便利店,120.26738,30.21677
19645801.0,顺丰快递,,,88297677;95338,萧山区,多处营业网点,民生银行ATM旁,生活服务,物流快递,120.26738,30.21677
19646195.0,顺丰速运,佳境天城店,,88297677,市心北路,宁围镇佳境街25号,"民生银行ATM旁,佳境天城幼儿园后",生活服务,物流快递,120.26724,30.21673
19677402.0,顺丰嘿客,,,15024493037,萧山区,浙江省杭州市萧山区宁围镇佳境街26号,,购物,更多购物场所,120.26725,30.21676
20662464.0,咱家水饺,,,82308976,市心北路,佳境街1-2号,境合苑7号底商,美食,饺子,120.268046,30.217459
20818411.0,停车场,,,,市心北路,万和国际中心,市心北路南,爱车,停车场,120.256569,30.233675
20818485.0,顺发·和美家停车场,,,,市心北路,永辉路与飞虹路交叉口东150米,,爱车,停车场,120.264059,30.229893
20818610.0,大象国际中心停车场,,,,萧山区,杭州市萧山区民和路与皓月路交界口北侧,,爱车,停车场,120.253062,30.234499
20818730.0,国泰科技大厦停车场,,,,钱江世纪城,利丰路701号附近,,爱车,停车场,120.255682,30.228989
20818747.0,世纪晶钻停车场,,,,市心北路,钱江世纪城公园西路与利丰路交叉口,,爱车,停车场,120.256187,30.230883
20849556.0,甘茶度,振宁路店,,18868729393,市心北路,宁围街道佳境街3号,佳境天城边上，地铁振宁路站D出口,美食,茶饮果汁,120.268289,30.217568
20849564.0,蜜果,佳境天城店,,82773774,市心北路,振宁路855号,,美食,茶饮果汁,120.266144,30.215672
20887965.0,萧然装饰设计工程,,,13867150300,城厢,宁围镇市心北路佳境天城1747号,,生活服务,其他家电数码维修,120.26763,30.21695
21300891.0,橙光影视工作室,,,15268163720;17767133850,萧山区,民和路钱江世纪城祥腾财富中心2幢706A,,结婚,婚礼跟拍,120.256599,30.230556
21355924.0,快乐星,,,57171613,萧山区,文明路,,美食,快餐简餐,120.26179,30.21291
21600386.0,龙膜杭州旗舰店,钱江世纪城店,,17280111806,萧山区,文明路828-829号,,爱车,美容洗车,120.25151,30.2134
21724961.0,光线摄影摄像,,,13395717430,萧山区,利华路恒瑞银座1栋1单元9楼,近通惠北路,生活服务,快照摄影,120.267,30.21651
21960001.0,传世骨头饭 佳境天城店,,,,市心北路,佳境天城,,美食,东北家常菜,120.26564,30.21605
21960037.0,丽娟饭店,,,22855077,市心北路,振宁路925-929号,,美食,苏浙菜,120.264069,30.21556
21963497.0,乔村二十八道,钱江世纪城店,,82218017;18058436503,钱江世纪城,皓月路159号诺德财富中心B幢楼北门1~2层,,美食,创意菜,120.25446,30.23404
22058329.0,川味王面馆,,,,市心北路,市心北路,,美食,面馆,120.26917,30.21882
22652520.0,秀妍韩式持久装,,,,市心北路,市心北路大成晶座2幢3单元1702室,,美食,韩国料理,120.26917,30.21882
22925439.0,当天财富,萧山分公司,,,萧山区,市心北路雷迪森商务楼3A,,生活服务,更多生活服务,120.26917,30.21882
23348961.0,白玫瑰足浴,,,,萧山区,市心北路,,休闲娱乐,按摩/足疗,120.26917,30.21882
23460057.0,老板油烟机保养维修中心,,,4000757231,萧山区,民和路顺丰家园附近,,生活服务,其他家电数码维修,120.26253,30.21437
23635355.0,潮童星学院,萧山新城校区,,82603995,市心北路,市心北路佳境天城小区内,,亲子,综合才艺,120.266899,30.217844
23931595.0,湘居房产,,,82755040,市心北路,心北路海杰德大厦a幢907,,美食,湘菜,120.268526,30.215376
24287341.0,万和国际游泳池,,,18668071106,市心北路,市心北路1939号与皓月路交叉口,,运动健身,游泳馆,120.256996,30.232546
24626648.0,重庆小面,,,18758291683,市心北路,市心北路,,美食,面馆,120.26919,30.21706
24749017.0,香味馆,,,15381165253,萧山区,振宁路巴比馒头旁,,美食,浙菜,120.26596,30.21603
24777313.0,星美美容养生馆,,,,市心北路,宁围镇市心北路1808号盈丰路农商银行旁边,,丽人,SPA美体,120.2605,30.23313
26977548.0,博地中心,,,,市心北路,盈丰路与民和路交叉口,,生活服务,更多生活服务,120.25218,30.235559
26977569.0,宏扬·鲲鹏中心,,,,钱江世纪城,民和路481号联合中心南区,,生活服务,更多生活服务,120.255023,30.230017
27161700.0,小林刺身·炭火烧串,归谷中心店,,18966499527,市心北路,市心北路2000号归谷国际中心3F-14,,美食,日本料理,120.256233,30.235614
27191835.0,纳德51风尚酒店中餐部,,,,北干,市心北路737号,,酒店,经济型,120.269,30.21736
27191890.0,纳德51风尚酒店浅醉坊餐厅,,,83781177,北干,市心北路737号纳德51风尚酒店2楼,,美食,其他中餐,120.268464,30.216848
27202172.0,牛犇汽车美容,,,15658850022,萧山区,文明路578-579号,,爱车,美容洗车,120.262831,30.212863
27223625.0,伊人·show,,,13429133231,市心北路,振宁路825号佳境天城,佳境天城人合苑底商,丽人,美发,120.267061,30.215543
32301143.0,立实电商,,,87562607,市心北路,农业大厦2幢503室,振宁路地铁口,教育培训,其他职业培训,120.26935,30.22053
32301358.0,dancehouse生活馆,,,89192799,市心北路,民和路500号民营企业发展大厦A幢16层,庆春隧道萧山机场,购物,更多购物场所,120.25652,30.23123
32458414.0,悠百佳零食水果量贩,,,13675815274,市心北路,宁围镇佳境天城佳境街36号,佳境天城幼儿园,美食,水果店,120.267,30.21651
32570679.0,中国兰州牛肉拉面,,,18215046555,萧山区,民和路474号,,美食,面馆,120.256568,30.229868
32640243.0,天天鲜果园,,,15397058250,市心北路,市心北路563-1号,,美食,其他美食,120.26921,30.21394
32673672.0,金棕榈装饰设计,,,57185712;13967107101,市心北路,市心北路563号海杰德大厦B幢3单元1102室,宝马4S店,家装,装修设计,120.26927,30.21382
32674346.0,美q&美天淘,萧山店,,18458126880,市心北路,市心北路709号1幢,,丽人,美发,120.26899,30.21682
32794437.0,世纪之星,,,,奥体博览中心,公园西路西侧,,生活服务,更多生活服务,120.24047,30.22785
32815050.0,京港国际,,,,市心北路,市心北路与皓月路交叉口西南100米,,生活服务,更多生活服务,120.255699,30.234577
32815052.0,万禹汇美食广场,,,,市心北路,钱江世纪城市心路与皓月路交叉口,,生活服务,更多生活服务,120.25693,30.23475
33079038.0,和美家超市,,,83503779,市心北路,市心北路百兴门窗北侧,,购物,超市/便利店,120.263729,30.230341
33189084.0,一邻一舍便利店,,,,市心北路,宁围镇文明路478号,,购物,超市/便利店,120.268017,30.212758
33199093.0,上海青远超市,盈丰店,,,市心北路,广场路盈丰街路口附近,,购物,超市/便利店,120.25821,30.23472
33317041.0,盈平超市,,,83517781,萧山区,飞虹路1882号,,购物,超市/便利店,120.26338,30.2296
33406782.0,中国移动,神洲世扬指定专营店,,,市心北路,盈丰街10号,,购物,数码产品,120.260109,30.234415
36868725.0,Sweet Rose,,,17706811506,北干,飞虹路1868号钱江世纪城顺发和美家,,美食,面包烘焙,120.263724,30.2299
37925489.0,星世纪造型,,,15157166636,市心北路,振宁路921-923号,,丽人,美发,120.26432,30.215599
38177137.0,启航培训学校,,,18268117409,市心北路,盈丰街26附近,,教育培训,中小学综合辅导,120.26019,30.23443
38201230.0,骏丰娱乐公司,,,13516823132,市心北路,市心北路雷迪森,,教育培训,其他职业培训,120.26917,30.21887
38428196.0,世纪广场小学作文小学英语数学课后辅导班,,,,萧山区,萧山-钱江世纪城-金城路学习中心丨新世纪学习中心,,教育培训,中小学综合辅导,120.24895,30.21551
38561574.0,雲極馆,,,83811222;13396525678,萧山区,宁围镇振宁路799号,市心北路与振宁路交叉口，地铁振宁路站,运动健身,武术格斗,120.268257,30.215526
39261369.0,杭州百菜园农产品配送有限公司,,,,市心北路,农业大厦,振宁路,生活服务,公司企业,120.269351,30.22053
39616608.0,靖怡羊绒,,,15356690519,萧山区,宁围镇振宁路837号,,购物,服装,120.266658,30.215591
39626568.0,聚艺装饰窗帘,,,15268170898,萧山区,宁围镇振宁路865号,,家装,窗帘,120.26574,30.215604
39629342.0,名居窗帘,,,13105715319,萧山区,振宁路沙县小吃旁,,家装,床品家纺,120.263724,30.215681
39656829.0,科诚房产,,,,市心北路,市心北路与文明路交叉口旁,,生活服务,房产中介,120.269004,30.212777
39664757.0,住邦房产,,,82721116,市心北路,利华路27号江南明城·金座,,生活服务,房产中介,120.269241,30.218613
39711626.0,冠扬口腔·医保定点,萧山店,,83581991;13868082170,市心北路,振宁路859-863号,,医疗健康,齿科,120.265777,30.215407
39799257.0,喉口香面,,,82824678,萧山区,振宁路传世骨头馆旁,,美食,面馆,120.265928,30.215961
39867018.0,小心超市,,,18867112959,市心北路,市心北路563号海结德大厦1楼,,购物,超市/便利店,120.269345,30.213794
39918699.0,侯口香,,,18069880868,萧山区,振宁路868号,,美食,其他中餐,120.265884,30.216007
40031975.0,中国移动通信,,,15924153525,市心北路,振宁路玉林翡翠对面,,生活服务,移动营业厅,120.266937,30.215586
40131742.0,上海华立鞋艺,,,18367131833,萧山区,振宁路842-844号,,生活服务,修鞋擦鞋,120.26625,30.21599
40148281.0,富春江梅干菜烤饼,,,15268168411,市心北路,宁围镇佳境天城底商,,美食,小吃,120.26674,30.21558
40238229.0,恒宸地产,,,15967181874,萧山区,振宁路836号,,生活服务,房产中介,120.26642,30.21606
40251712.0,东北大馅饺子馆,,,,市心北路,丰盈线四川正宗川菜馆旁,,美食,饺子,120.264862,30.232231
40333252.0,世佳地产,,,82738060,市心北路,市心北路815号,,生活服务,房产中介,120.26806,30.21844
40359059.0,杭州杏花楼蛋糕专卖,,,13777879273,市心北路,宁围镇佳境天城底商,,丽人,化妆品,120.266814,30.216246
40365121.0,萨米特陶瓷,,,13157119593,萧山区,振宁路935-937号,,家装,瓷砖石材,120.264028,30.215623
40434027.0,农夫山泉,,,,萧山区,振宁路佳境天城人合苑底商,,生活服务,送水站,120.2666,30.215618
40443303.0,恩施网吧,,,,萧山区,宁围镇振宁路963号,,休闲娱乐,网吧/电竞,120.263317,30.215623
40529544.0,刘记面馆,,,13758282975,萧山区,振宁路新合作医疗对面,,美食,面馆,120.266033,30.215902
40723480.0,中国国旅,,,,萧山区,永辉路和镇宁路交叉口以东70米,,生活服务,旅行社,120.26619,30.215557
40774986.0,VC果园,,,82867754;13819488833,萧山区,振宁路805号,悬壶门诊部隔壁,美食,水果店,120.26768,30.215424
40899727.0,友佳饭店,,,15268555497,市心北路,丰盈线盈一五金建材对面,,美食,苏浙菜,120.264723,30.23147
40949631.0,土烧酒,,,15068867858,市心北路,飞虹路盈丰街交叉口西50米,,购物,烟酒茶叶,120.26282,30.233524
40972611.0,佳品果园,,,82228337,萧山区,振宁路巴比馒头东30米,,美食,水果生鲜,120.266495,30.216027
41076911.0,宏达门窗,,,15988855630,萧山区,振宁路955号,,家装,门窗,120.263556,30.215623
41078146.0,萧山农商银行,,,,萧山区,宁围镇振宁路987号,,生活服务,营业网点,120.262306,30.215597
41207862.0,江湖川味菜馆,,,,市心北路,丰盈线世纪先锋超市旁,,美食,川菜馆,120.264942,30.232379
41208900.0,屋里屋外,,,82913139,萧山区,振宁路849号,,生活服务,更多生活服务,120.266124,30.215595
41257471.0,孙江面馆,,,13989821382,萧山区,振宁路931-933号,,美食,面馆,120.264083,30.215625
41289869.0,爱香饭店,,,82834780,萧山区,振宁路1005号,,美食,苏浙菜,120.262041,30.215523
41309458.0,科威国际不动产,,,,萧山区,振宁路玉球翡翠旁,,生活服务,房产中介,120.266555,30.216134
41494151.0,德国多丽滑动移门,,,83864337,萧山区,振宁路巴比馒头旁,,家装,门窗,120.266061,30.216047
41549764.0,阿根水果超市,,,13666645676,萧山区,振宁路丽娟饭店旁,,美食,水果生鲜,120.264343,30.215674
41579597.0,名门御匠装饰,,,,萧山区,振宁路939-941号,,家装,装修设计,120.263987,30.215632
41585283.0,河南滋补烩面,,,,市心北路,丰盈线沙县小吃北侧,,美食,小吃快餐,120.264911,30.231658
41589180.0,贵州烧烤,特色烤鱼,,,萧山区,盈丰线欣欣家纺斜对面,,美食,融合烤肉,120.262756,30.233723
41590277.0,麦疙瘩打面,,,,萧山区,宁围镇振宁路833号,,美食,面馆,120.266625,30.215684
43394578.0,公厕,,,,萧山区,文明路580号附近,,生活服务,厕所,120.262658,30.213011
43410678.0,公厕,,,,萧山区,丰盈线附近,,生活服务,厕所,120.265087,30.233826
43566448.0,公共厕所,,,,萧山区,博奥路与奔竞二路交叉口东150米利一村社会服务管理分中心附近,,生活服务,厕所,120.243591,30.229198
43586574.0,公共厕所,,,,萧山区,合丰村附近,,生活服务,厕所,120.24308,30.218969
43672041.0,大众旅行社代理,,,13634104931,市心北路,市心北路882号,,生活服务,旅行社,120.268454,30.221981
43860265.0,丰盛烟酒,,,82690460,市心北路,宁围镇振宁路797号,,购物,烟酒茶叶,120.26825,30.215479
43866827.0,鸿宁汽配制造有限公司,,,,市心北路,丰盈线与盈丰街交叉口,,爱车,维修保养,120.266262,30.232551
43893461.0,童记牛肉汤,振宁路店,,15055437663,市心北路,宁围街道丰东村振宁路813号丰盛大厦813号,,美食,小吃,120.26935,30.21481
43941459.0,悦己SPA,,,,市心北路,佳境天城佳合苑1-3-1001,,丽人,SPA美体,120.267448,30.219721
43987496.0,北干光大轮胎店,,,82832456,萧山区,宁围文明路499号,,爱车,配件厂商,120.26713,30.21285
44081290.0,新记传骨头饭,和美家店,,15059004887,市心北路,飞虹路1890号,,美食,快餐简餐,120.263241,30.229576
44179438.0,荷娟美容美发养生会所,,,13093783268,市心北路,宁围镇文明路495号,,丽人,美发,120.267227,30.212849
44202520.0,车易美汽车美容维修,,,28292778;13735888453,萧山区,市心北路1808号,,爱车,维修保养,120.26,30.233227
44211780.0,南口广告,,,15968862376,萧山区,宁围镇振宁路870号,,生活服务,图文快印,120.2658,30.216003
44260632.0,亨德蛋糕,,,,钱江世纪城,计量东区4号楼4-17室,,美食,面包烘焙,120.244675,30.236527
44338527.0,卡玛沙龙专业美发设计,萧山旗舰店,,82835131,市心北路,振宁路786-2号,,丽人,美发,120.267731,30.216262
44395362.0,农村合作银行24小时自助银行,利二分理处,,,萧山区,振宁路顺丰家园(北门)附近,,生活服务,ATM自助网点,120.26227,30.21557
44397504.0,农村合作银行ATM,,,,市心北路,市心北路杭州祥腾房地产开发有限公司附近,,生活服务,ATM自助网点,120.260528,30.233004
44398066.0,禾动漫·未来美院,,,82730612;13588131086,市心北路,宁围街道振宁路813号二楼禾动漫,丰盛大厦,教育培训,美术,120.26738,30.21552
44430468.0,堂雅房产,和美家店,,83737928,市心北路,飞虹路1896号,,生活服务,房产中介,120.263407,30.229779
44491046.0,中国邮政储蓄银行,,,82690114,萧山区,盈丰街1号附近,,生活服务,营业网点,120.26039,30.23406
44537617.0,中国福利彩票,,,,萧山区,盈丰街15号附近,,生活服务,彩票,120.26465,30.23556
44660779.0,管道燃气宁围营业厅,,,,市心北路,振宁路803,,生活服务,更多生活服务,120.26788,30.2155
44805673.0,萧山农村合作银行,,,,萧山区,丰盈线宁围镇盈一村附近,,生活服务,营业网点,120.26448,30.23542
44841603.0,七田阳光儿童全脑教育中心,,,,萧山区,市心北路811,,亲子,综合早教中心,120.26802,30.21824
44858210.0,报刊亭,,,,萧山区,宁东社区360号附近,,生活服务,书刊订阅,120.26636,30.21598
44871442.0,阿华快递有限公司,,,83865000,市心北路,盈一村670,,生活服务,物流快递,120.26417,30.23359
44876023.0,农村合作银行（宁围支行）,利二分理处,,,萧山区,振宁路989号附近,,生活服务,营业网点,120.26235,30.21557
44883887.0,骐骥地产,,,13486161808,市心北路,市心北路1523号,,生活服务,房产中介,120.263975,30.229896
44921491.0,乐嘉地产,和美家店,,82200114,市心北路,飞虹路1892号,,生活服务,房产中介,120.263282,30.22981
44947707.0,置家房产,市心北路店,,82739958,萧山区,市心北路1525号,,生活服务,房产中介,120.26392,30.22991
45120170.0,瑞雪宠物生活馆,,,82605873,市心北路,宁围镇振宁路821号,,宠物,宠物店,120.26683,30.21559
45193691.0,兰诚网络科技有限公司,,,82834071,市心北路,宁围街道钱江世纪城鸿宁路与皓月路交叉口（盈丰地铁口A口旁边）左右世界办公大楼1801,,生活服务,公司企业,120.257129,30.235768
45225596.0,中国民生银行ATM,,,,萧山区,佳境街23,,生活服务,ATM自助网点,120.26725,30.21674
45311311.0,吉祥馄饨,杭州佳境天城店,,13735592828,萧山区,振宁路佳境天城840号,,美食,馄饨|抄手|扁食,120.266294,30.215973
45426402.0,兰州拉面,,,13082822649,市心北路,佳境街4号佳境天城,,美食,面馆,120.268272,30.21755
45487666.0,兰州拉面,,,18367142060,市心北路,宁围镇市心北路1529号,,美食,面馆,120.263802,30.22996
45639471.0,向皖美容美发,,,82808219;18324478650,市心北路,市心北路801-803号,,丽人,美发,120.26852,30.2182
45675569.0,品味自选餐厅,,,82872875,市心北路,宁围街道丰东村振宁路815号,,美食,快餐简餐,120.267339,30.215419
47384448.0,瘦吧减肥专门店,文明路店,,,钱江世纪城,文明路284-286号附近,,丽人,瘦身纤体,120.263635,30.212863
47405206.0,京东,振宁路店,,,萧山区,宁围镇振宁路1455号,,生活服务,物流快递,120.25221,30.21472
48075877.0,万利隆,,,,市心北路,振宁路786号-5,,美食,面包甜点,120.267962,30.216596
48310855.0,林夕美业,,,15168366661,萧山区,市心北路589号,,丽人,美发,120.26896,30.21448
48434396.0,中国体育彩票,,,,萧山区,振宁路851号,,生活服务,彩票,120.266144,30.21545
48637199.0,老胡子粮油炒货批发零售,,,13967144380,萧山区,盈丰街1附近,,美食,更多食品保健,120.260107,30.234054
48696366.0,钱江世纪城幼儿园顺丰家园园区,顺丰家园园区,,85123601,萧山区,振宁路981号,,亲子,幼儿园,120.262226,30.213701
48714635.0,大成金属经营部,,,82692872;13906715298,萧山区,振宁路909-911号,,家装,家用五金,120.264643,30.215636
48719664.0,灵放设计,,,82225725;13396713007,萧山区,文明路顺丰家园南门606号,,家装,软装设计,120.261355,30.21293
48781517.0,小根眼镜店,,,82692248,萧山区,盈丰街26附近,,购物,眼镜店,120.259772,30.23444
48781771.0,爱仙金店,,,4000908610-322303,市心北路,宁围镇盈丰街1号新市民公寓1号楼西单元,,结婚,更多珠宝首饰,120.2596,30.234225
48826755.0,公共厕所,,,,市心北路,市心北路与振宁路交叉口西南100米,,生活服务,厕所,120.269073,30.215202
48999408.0,素英服饰,,,,市心北路,盈丰农副产品综合市场,盈丰街北,购物,服装,120.260579,30.235012
49055624.0,爱尔薇包包,,,13735543249,萧山区,振宁路854号,,购物,其他服饰鞋包,120.265958,30.216004
49266911.0,韵达快运,合丰村分点,,,萧山区,S4机场高速市政路入口附近,,生活服务,物流快递,120.243069,30.218408
49479155.0,浙江东方海外国际旅行社,,,,钱江世纪城,振宁路849,,生活服务,旅行社,120.266111,30.215609
49559076.0,摩雅国际名店,,,,钱江世纪城,宁围镇文明路562号,,生活服务,更多生活服务,120.263435,30.212908
49564799.0,全网通手机,萧山宁围盈丰店,,,市心北路,盈丰街1号附近,,购物,数码产品,120.260508,30.234152
49604345.0,湘澜教育,,,,市心北路,宁围镇振宁路805号,,美食,湘菜,120.267756,30.215399
49626157.0,建新油漆商行,,,82871816;13967127956,萧山区,文明路505号,,家装,油漆涂料,120.266786,30.212823
49683588.0,老包茶庄,,,,市心北路,盈丰街12附近,,购物,更多购物场所,120.25997,30.234456
49712373.0,世纪城手机卖场,,,13735527895,市心北路,宁围镇盈丰街46号,,购物,数码产品,120.259028,30.23465
49855951.0,公共厕所,,,,萧山区,振宁路981号附近,,生活服务,厕所,120.262287,30.21406
49908028.0,宝莲灯母婴用品,盈丰店,,82925886,萧山区,盈丰街36号,,亲子,婴儿用品,120.259192,30.234556
49924125.0,小黑电脑开锁换锁,,,18858146577,萧山区,飞虹路1077号佳丰北苑东南门旁,,生活服务,电脑维修,120.246552,30.223539
49934217.0,湘印图文,,,18072857136,市心北路,宁围镇市心北路835号,,生活服务,图文快印,120.268265,30.218992
49987813.0,公共厕所,,,,萧山区,振宁路410附近,,生活服务,厕所,120.268897,30.215186
50131424.0,百乐居建材展览馆,,,82645180,萧山区,文明路605号,,家装,建材,120.261455,30.212987
50229897.0,鲁吾君诊所,,,,市心北路,广场路和盈丰街的交叉口附近,,医疗健康,综合诊所,120.258308,30.234795
50401714.0,佳境电脑,,,13346176734,萧山区,宁围镇振宁路853号,,生活服务,电脑维修,120.265907,30.215609
50422687.0,佳境营养驿站,,,83535363,市心北路,振宁路829号,地铁2号线振宁站,美食,快餐简餐,120.266789,30.215586
50585160.0,顺丰房产,,,22880023,萧山区,顺丰家园28幢,,生活服务,房产中介,120.263056,30.215615
50663687.0,顺丰电脑科技,,,18268800808,萧山区,振宁路999号,,生活服务,电脑维修,120.2622,30.215562
50939430.0,万和商务酒店,,,83537188,市心北路,皓月路176号,,酒店,经济型,120.25642,30.233253
56534109.0,杭州尤看运动医学诊所,,,83530608,萧山区,民和路477号国泰科技大厦1至4楼,地铁2号线飞虹路C出口,医疗健康,体检中心,120.255903,30.229561
56541411.0,龙姣图文快印,,,15700066269,市心北路,皓月路174号,万和国际,生活服务,图文快印,120.256393,30.233046
56571390.0,尤看运动健康管理有限公司,,,83530608;17767125281,萧山区,民和路477号国泰科技大厦,地铁2号线飞虹路C出口,生活服务,公司企业,120.25576,30.22955
56572643.0,乐选便利店,,,13357180656,市心北路,浙江民营企业发展大厦A1楼,,购物,超市/便利店,120.25626,30.23104
56847510.0,DDK韩式半永久美妆,,,18507258099,三墩镇,萧山区宁围镇飞鸿路1500号,灯彩街,丽人,纹绣,120.255517,30.226814
56924774.0,祥亨土特产商行,,,83528338,萧山区,宁围街道丰东村振宁路811号1楼,,美食,更多食品保健,120.267502,30.215622
56934984.0,九鼎牛肉面,,,18195626048,市心北路,宁围街道皓月路186号1楼,,美食,面馆,120.256619,30.23346
57024135.0,茗雅斋会所,,,,市心北路,皓月路154号万和国际,西湖之声旅游有限公司二楼,美食,创意菜,120.255751,30.232392
57162710.0,龙泽锅锅汇,,,15258893457,市心北路,南环路文源商贸大楼一层,实际联华对面,美食,火锅,120.258,30.235
57210875.0,龙源烟酒商行,,,18906711844,萧山区,宁围镇新华村文明路739号,,购物,烟酒茶叶,120.2558,30.21308
57674618.0,朗星葡萄酒红酒培训,,,17006889919,萧山区,民和路481号联合中心A座902A,,教育培训,其他兴趣生活,120.25486,30.23023
57687841.0,佰佳旺快餐连锁,世纪城店,,17706409814,萧山区,宁围街道民和路513号,,美食,快餐简餐,120.254983,30.230968
57969707.0,兰州拉面,佳境店,,13175071909,萧山区,宁围街道利华路890号,,美食,其他中餐,120.266115,30.216163
58049884.0,太极餐饮茶藝,,,83811222,市心北路,振宁路云极馆旁,,教育培训,其他院校,120.26838,30.215594
58151926.0,银川市金凤区新田商行,,,15355055053,萧山区,杭州-萧山-开发区 市心北路845号 钱江世纪城店,,生活服务,更多生活服务,120.25342,30.21305
58312800.0,Cola半永久定妆工作室,,,15757746281,市心北路,佳境天城境合苑8幢1单元609,,丽人,纹绣,120.26809,30.2183
58424023.0,兴都装饰,,,82623808,萧山区,市心北路563号海杰德大厦2单元1201,,家装,半包装修,120.26927,30.21382
58537520.0,贝特猫鲜花店,金昌春和钱塘工作室,,4006557522,萧山区,钱江世纪城飞虹路与民和路交叉口,,购物,花店,120.25806,30.22664
58586440.0,靓雅美车驿站,,,18667002660,钱江世纪城,宁围镇振宁路901-903号,,爱车,维修保养,120.264743,30.215637
58892724.0,西派健身V+会所,佳境天城店,,83733736,市心北路,佳境街9号,,运动健身,游泳馆,120.268046,30.217481
59018057.0,丰瑞汽车美容,盈丰路店,,18768420932,萧山区,飞虹路与盈丰路交叉口,,爱车,美容洗车,120.263959,30.233543
59028736.0,中医美容养生私人会所,,,17767129149,市心北路,振宁路与市心路交叉口佳境天城小区成合苑4幢1单元1401,,丽人,美容/SPA,120.265959,30.215723
59086412.0,爱美美纹秀工作室,,,13616870528,市心北路,顺发江南丽锦,奥体中心,丽人,美睫,120.26581,30.22741
59283425.0,杭吉开锁刻章店,,,15257131122,萧山区,文明路589号,,生活服务,开锁换锁,120.26199,30.21291
60517873.0,华联超市,,,13777554189,市心北路,市心北路563-1号,,购物,超市/便利店,120.269023,30.213878
61699681.0,杭州佰胜门窗,文明路店,,86623931,萧山区,文明路843-844号,,家装,门窗,120.25149,30.213245
61701179.0,其江装饰材料商行,,,82832017,萧山区,文明路845-846号,,家装,建材,120.251436,30.213245
61727534.0,荣森门业,,,,市心北路,宁围镇文明路477号,,家装,门窗,120.26811,30.212751
61772309.0,佳力钢材,,,82834938,萧山区,丰北村190附近,,家装,家用五金,120.25814,30.232932
61776186.0,冠楠建设专业隔层,,,,市心北路,外环西路1890号附近,,家装,建材,120.263173,30.22972
61789526.0,强牌陶瓷,飞虹路店,,,萧山区,飞虹路1207号,,家装,瓷砖石材,120.249457,30.224005
62178777.0,精艺门窗,文明路店,,,萧山区,文明路559号,,家装,门窗,120.263636,30.212902
62228793.0,老杨门窗,,,,萧山区,振宁路1439号附近,,家装,门窗,120.252576,30.214769
62378554.0,宁围镇乡村学校少年宫,,,,萧山区,北辅路江南小学附近,,休闲娱乐,更多文化艺术,120.261176,30.224164
62470913.0,浙衢饭店,,,,市心北路,宁围镇盈一村六组666号中国邮政旁边,,美食,苏浙菜,120.260816,30.233898
62540423.0,欧亚门窗装饰,,,,萧山区,宁围镇振宁路1423号,,家装,门窗,120.25297,30.21487
62547659.0,永泰丰五金电器商店,,,82602592;13606630380,市心北路,文明路475-476号,,家装,家用五金,120.268152,30.212744
62662140.0,爱虎面店,,,,市心北路,鸿宁路与鸿达路交叉口南100米,,美食,面馆,120.260717,30.23612
62720696.0,林权面馆,,,18558653723;13757175205,萧山区,宁围镇民和路481号国泰科技大厦1楼,,美食,面馆,120.255432,30.229277
62796407.0,雅馨窗帘,文明路店,,18258287696,市心北路,宁围镇文明路487号,,家装,窗帘,120.267533,30.212795
63132878.0,德意电器,文明路店,,82690386,市心北路,市心北路511号,,家装,家用电器,120.268898,30.21283
63159156.0,大宝漆,文明路店,,,萧山区,文明路839-841号,,家装,油漆涂料,120.251538,30.213224
63205732.0,畅越布艺,,,,萧山区,文明路821号附近,,家装,床品家纺,120.25234,30.2132
63210145.0,留军水果店,,,82150873,萧山区,振宁路1481号,,美食,水果店,120.25121,30.21463
63243971.0,湘湖户外烧烤活动基地,,,13429637870,市心北路,飞虹路与市心北路交叉口东北角,,美食,烧烤烤串,120.263879,30.232149
63246227.0,荣耀土菜馆,,,13706505812,市心北路,广场路附近,,美食,农家菜,120.25819,30.23506
63309307.0,掌上明珠家居,,,,萧山区,飞虹路1217号,,家装,其他家具家居,120.24967,30.22405
63365288.0,佳豪饭店,,,,萧山区,奔竞二路附近,,美食,苏浙菜,120.24329,30.231247
63398807.0,宁围才建油漆店,,,,萧山区,振宁路1487-1489号,,家装,油漆涂料,120.25109,30.21462
63404512.0,新意方,万和国际店,,13616556385,市心北路,万和国际,,美食,其他中餐,120.256494,30.233156
63423076.0,国潮水果超市,,,,萧山区,广场路和盈丰街的交叉口附近,,美食,水果店,120.2582,30.234403
63440318.0,一尊门窗,,,13216153196,市心北路,文明路487号附近,,家装,门窗,120.267554,30.212793
63447095.0,昊天石材,文明路店,,,市心北路,文明路483号附近,,家装,瓷砖石材,120.267801,30.212767
63500360.0,飞达不锈钢铝合金制作,,,13588251286,萧山区,文明路469号附近,,家装,家用五金,120.268342,30.212727
63503813.0,万家乐五金百货,,,,市心北路,盈丰街12号,,家装,家用五金,120.26003,30.23445
63534366.0,百佳汇家居建材,,,,萧山区,飞虹路1241号,,家装,建材卖场,120.25001,30.22413
63538195.0,盈丰五金交电商场,,,82690086,市心北路,心北路盈一外来人员公寓旁,,家装,家用五金,120.259036,30.234351
63555825.0,佳好家菜篮子,,,,萧山区,振宁路1457号,,美食,生鲜,120.25209,30.214758
63620690.0,千年舟绿色板材,,,83719816,萧山区,飞虹路1235-1237,,家装,其他家具家居,120.24995,30.22411
63690587.0,迎霞屋,,,,市心北路,盈一村153号,,美食,其他中餐,120.26167,30.23376
63729736.0,百源板材,宁围专卖店,,,萧山区,飞虹路北50米,,家装,木材板材,120.2513,30.22437
63776361.0,"玲珑不锈钢,塑钢,铝合金装潢部",,,,市心北路,文明路501-502号,,家装,家用五金,120.26703,30.2128
63813495.0,河南香菜馆,,,,市心北路,萧钱线附近,,美食,湘菜,120.25819,30.23632
63836800.0,玉英饭店,丰二路店,,,萧山区,丰二路南150米,,美食,苏浙菜,120.26183,30.22013
63911930.0,正祥五金,,,82690398;13967167818,萧山区,宁围镇盈丰街6号,,家装,家用五金,120.26045,30.23435
63978321.0,圣象地板,飞虹路店,,,萧山区,飞虹路1209号,,家装,地板,120.24956,30.22402
63982611.0,丰瑞精品家居体验馆,,,,萧山区,飞虹路1247号,,休闲娱乐,游乐游艺,120.25016,30.22415
63989923.0,盈丰土菜馆,,,,市心北路,广场路丰北警务站旁,,美食,农家菜,120.258182,30.235876
64011450.0,怡万家·布艺,,,,萧山区,振宁路1483号,,家装,床品家纺,120.25109,30.21462
65509038.0,典典养车汽车服务连锁,飞虹店,,82655725,萧山区,飞虹路佳丰北苑底商,,爱车,美容洗车,120.245868,30.223387
65680452.0,蜜桃小院私房烘焙,,,18258391249,市心北路,市心北路顺发和美家9幢,,美食,甜品,120.26291,30.229201
65686415.0,田妈面馆,,,13757175205,萧山区,宁围镇利丰路689号国泰科技大厦,,美食,面馆,120.2556,30.229022
65760051.0,乐速面疙瘩,世纪城店,,13456733080,市心北路,宁围街道富业巷6号,,美食,快餐简餐,120.256531,30.230667
66171403.0,小桑树染烫改变专门店,港汇中心店,,17645790298;18333257333,市心北路,振宁路地铁B出口北行50米绿都港汇中心一号楼2407A,,丽人,美发,120.26795,30.22074
66436957.0,今人金方,,,18626886821,市心北路,宁围街道富业巷23号浙江民营大厦2懂1704室,,美食,其他美食,120.256069,30.23106
66502453.0,ID酷街舞,钱江世纪城校区,,56757565,市心北路,民和路500号浙江民营企业发展大厦B座16层,,教育培训,少儿舞蹈,120.25689,30.231517
66554722.0,勇臣投资管理有限公司,,,82685293,市心北路,市心北路868号农业大厦1号楼1001,,生活服务,其他金融,120.26935,30.22053
66631187.0,老妈馄饨,炒菜简餐,,15906667781,萧山区,北干街道荣庄村8053号,,美食,馄饨,120.264477,30.213133
66667600.0,果丁酒店,奥体中心店,,88086558,萧山区,民和路486号世纪晶钻1号楼20楼2009室,,酒店,舒适型,120.256709,30.230155
66714582.0,依丽贝卫浴直营店,,,15158098852,萧山区,文明路618号,,家装,厨卫洁具,120.260836,30.212916
66764798.0,一品江南精致,面生活,,18368887966,市心北路,宁围街道佳丰苑飞虹路1103号,,美食,面馆,120.264101,30.23125
66794723.0,东北水饺,,,15168368887,市心北路,振宁路827号,,美食,饺子,120.26672,30.21548
66797155.0,吉祥馄饨,飞虹店,,13396583771,萧山区,飞虹路1059号,,美食,馄饨|抄手|扁食,120.246331,30.223514
66872160.0,湾组小吃,黄焖鸡骨头饭,,13456929673,萧山区,宁围街道钱江世纪城飞虹路1295号,,美食,黄焖鸡,120.251458,30.224624
66897233.0,云逸持久美妆,,,82832838;17706712287,市心北路,市心北路557号海杰德大厦510,,丽人,纹绣,120.26927,30.21382
66924361.0,欣禧画艺,,,18667158275,萧山区,宁围镇佳丰北苑飞虹路1023号,,休闲娱乐,DIY手工坊,120.244667,30.223351
66981384.0,优鲜送.健康美食,,,15967127341,市心北路,宁围街道振宁路丰盛大厦813号,,美食,面包烘焙,120.268075,30.215398
66991694.0,北京交换空间装饰杭州公司,,,15825530388,萧山区,钱江世纪城民和路476号世纪晶钻楼下,,家装,全包装修,120.253419,30.213054
67002477.0,乐客佳科技,,,18067911489,市心北路,宁围街道泰宏巷28号联合中心南区2幢1201室,,生活服务,公司企业,120.25541,30.230199
67062703.0,虾蟹演义小龙虾,,,17767129330,市心北路,杭州市萧山区宁围镇海杰德大厦1层,,美食,小龙虾,120.268961,30.213866
67195888.0,浮鹿水果店,,,15967179454,市心北路,宁围街道市心北路809、811,,美食,水果店,120.2687,30.21829
67221395.0,摩雅水疗SPA,,,,市心北路,萧山市市心北路,,丽人,SPA美体,120.26917,30.21882
67228761.0,慕恩装饰,,,22951584,市心北路,市心北路佳境天城天合,,家装,半包装修,120.267403,30.217819
67231907.0,阿一煲,,,13185095389,萧山区,飞虹路1035号,佳丰北苑,美食,其他中餐,120.245253,30.223465
67232039.0,衢州乡下菜,,,,萧山区,飞虹路1043号,,美食,衢州菜,120.245547,30.223532
67238105.0,蜜菓,飞虹店,,13738034870,萧山区,飞虹路佳丰北苑1057,,美食,茶饮果汁,120.24611,30.223717
67243219.0,御味丰.老北京炸酱面,,,13365065691,萧山区,守信路与飞虹路交叉口东北150米,,美食,小吃快餐,120.247191,30.223781
67295005.0,悦宁发型设计,,,13173621985,萧山区,钱江世纪城佳丰北苑一楼商铺飞虹路1129号,杨铭宇黄焖鸡米饭边上,丽人,美发,120.24785,30.22382
67313732.0,CoMo专业烫发/染发/接发,港汇中心店,,15957158318,市心北路,市心北路港汇中心1号楼1505A室,地铁2号线振宁路B出口,丽人,美发,120.267992,30.221161
67361562.0,偶遇花艺,,,18042325016,市心北路,宁围街道佳境街36号,新世纪佳境天城幼儿园,购物,花店,120.266978,30.216403
67369672.0,Find the taste of the past,,,,市心北路,萧山振宁路地铁e口,,美食,创意菜,120.26729,30.215749
67509001.0,爱玛电动车,佳丰北苑店,,13805750782,萧山区,飞虹路1107号,,购物,自行/电动车及配件,120.247015,30.223654
67520739.0,偶遇花艺,,,18042325016,市心北路,宁围街道佳境街36号,,购物,花店,120.266885,30.216401
67536564.0,江南小学,,,,萧山区,宁围镇丰东村,,教育培训,小学,120.261719,30.224534
67580393.0,尊美发型,,,13615715798,萧山区,飞虹路1123号,,丽人,美发,120.247629,30.22384
67640488.0,子鲤港式煲仔披萨饭,,,18069898060,萧山区,宁围街道钱江世纪城飞虹路1211号,,美食,西餐,120.249453,30.224221
67778463.0,留联超市,宁围店,,87635765,市心北路,宁围街道富巷3号浙江民营企业发展大厦1幢一层,,购物,超市/便利店,120.25652,30.231239
67817336.0,隆奥车改,奥迪原厂配置升级改装,,17765130489,江干区,丰瑞北苑盈丰路292号,,爱车,改装调优,120.249813,30.225055
67880153.0,恒晟图文,万和国际店,,82350979,市心北路,杭州萧山区钱江世纪城皓月路150-2号,,生活服务,图文快印,120.255728,30.231929
67899382.0,果丁酒店世纪新城店,,,88086558,萧山区,民和路486号世纪晶钻1号楼2009号近飞虹路地铁站,,生活服务,联通营业厅,120.256469,30.229638
67921429.0,扮家装饰,,,,萧山区,宁围镇民和路481号联合中心2幢15A,,家装,装修设计,120.255408,30.230198
68088006.0,若兰装饰设计有限公司,,,22951984;13486383851,市心北路,浙江-杭州-上-市心北路家境天撑天合苑3幢1单元2601室,,家装,装修设计,120.268337,30.216687
68116812.0,嵊州小吃,,,18267569308,市心北路,宁围街道皓月路150-2号-2层,,美食,江浙小吃,120.255502,30.232317
68178940.0,美天引力私教,,,,市心北路,振宁路地铁口附近,,运动健身,私教工作室,120.267291,30.215709
68188646.0,茗蒸颜顺汗蒸养生馆,顺丰家园店,,15881397837;15168239591,萧山区,振宁路929号二楼,,休闲娱乐,洗浴/汗蒸,120.264045,30.215471
68192819.0,红酒文化品酒培训,,,,市心北路,民和路国泰科技大厦479号9楼,,教育培训,其他兴趣生活,120.25576,30.229549
68499727.0,四川饭店,盈丰街店,,13136169795,市心北路,盈丰街2号附近,,美食,川菜家常菜,120.26053,30.234329
68538594.0,安庆饭店,盈丰街,,,市心北路,宁围镇盈丰街道,,美食,徽菜,120.260703,30.23419
69144345.0,广仁城市家烧振宁路店丹鲤面馆,,,15267009187,市心北路,广仁城市家烧，吃出家的感觉,,美食,其他美食,120.267677,30.215581
69147652.0,辰诺汽车维修服务中心,,,15968817904,萧山区,飞虹路1207号,,爱车,维修保养,120.248968,30.224022
69147720.0,辰诺汽车服务部,,,18768420932,萧山区,盈丰路294号,,爱车,美容洗车,120.24908,30.224261
69222366.0,老北京炸酱面,民和店,,,萧山区,宁围街道民和路491-5-1号,,美食,小吃快餐,120.254906,30.23041
69244491.0,阿莲生活美容馆,,,15858276600,市心北路,宁围镇文明路541号,,丽人,美容/SPA,120.26428,30.212889
69311635.0,张姐烤肉拌饭,,,15988817745,萧山区,钱江世纪城飞虹路1213号,,美食,快餐简餐,120.249447,30.22419
69324693.0,24小时汽车道路救援拖车公司,民和路店,,18158194162,萧山区,民和路525号三宏国际大厦一层,,爱车,维修保养,120.2534,30.231209
69408057.0,豪仔鸡排汉堡,,,13735891329,萧山区,飞虹路1233号,,美食,西式快餐,120.249971,30.224222
69432843.0,墨研茶庄,,,15888843437;82599535,市心北路,钱江世纪城宁围街道民和路498号,世纪晶钻公寓附近,休闲娱乐,茶馆,120.256111,30.230967
69448862.0,重庆小面,振宁路店,,13588164086,市心北路,宁围街道丰东村丰盛大厦813室,,美食,面馆,120.26761,30.21543
69456586.0,水饺大王,,,13003636752,萧山区,飞虹路1033号,,美食,水饺,120.245238,30.223314
69498318.0,顺丰家园兰州拉面店,,,13456866102,萧山区,振宁路953号,,美食,面馆,120.262729,30.214258
69499644.0,川蜀土菜馆,,,86821116,萧山区,宁围街道飞虹路1039号,,美食,浙菜,120.245416,30.223378
69520003.0,杭州广彬国际酒店式公寓,奥体店,,83521855,萧山区,民和路486号世纪晶钻1号楼23楼2307室,,酒店,经济型,120.256743,30.230154
69531694.0,港式烧腊,,,18858550900,萧山区,宁围街道民和路491-4号,,美食,其他美食,120.254327,30.23001
69554059.0,干洗客,,,15005810990,市心北路,飞虹路1868号,,生活服务,洗衣店,120.263,30.229129
69600442.0,比逊美业,,,18867113150,萧山区,丰瑞北苑飞虹路1277号,,丽人,美发,120.251082,30.224294
69607860.0,雲極湘菜馆,,,83811222,市心北路,振宁路835号,,美食,湘菜,120.268098,30.215382
69618683.0,荆门土菜馆,,,,市心北路,飞虹路1039号,,美食,快餐简餐,120.26308,30.230259
69657746.0,御品贡茶,,,18106504392,萧山区,宁围街道飞虹路1135号,,美食,茶饮果汁,120.24809,30.22394
69659681.0,沙县小吃,,,13850811813,萧山区,宁围街道民和路491-4-1号,,美食,快餐简餐,120.255372,30.23035
69682489.0,蜜菓奶茶,联合中心店,,13989802408,萧山区,宁围街道民和路491-2-1号,,美食,茶饮果汁,120.255408,30.230198
69683139.0,嵊州美食,民和路店,,18367547498;13634155101,萧山区,宁围街道民和路491-2号,,美食,快餐简餐,120.255256,30.230086
69685258.0,ISG侍酒师品酒师培训,,,13738818494,萧山区,民和路478号国泰科技大厦2单元901室,,教育培训,茶酒咖啡培训,120.25549,30.22931
69751564.0,化隆牛肉面,,,13082822649,市心北路,宁围街道市心北路863号,一楼,美食,面馆,120.268069,30.219631
69751901.0,沙县小吃,佳丰北苑店,,,萧山区,钱江世纪城宁围街道丰瑞北苑1楼商铺飞虹路1281号,,美食,快餐简餐,120.24694,30.22368
69753262.0,中国兰州牛肉拉面,,,18324407888,萧山区,宁围街道佳丰北苑飞虹路1111号,,美食,面馆,120.247099,30.223667
69753420.0,花蛤小吃,飞虹路店,,13307034219,萧山区,宁围街道飞虹路1101号,,美食,快餐简餐,120.246956,30.223741
69753982.0,绝味鸭脖,振宁路店,,13758155818,市心北路,宁围街道振宁路831号,,美食,卤味鸭脖,120.266789,30.215592
69765189.0,包客里,飞虹路店,,13915276980,萧山区,飞虹路1247号,,美食,其他美食,120.250278,30.224417
69841680.0,木曦护肤造型,,,82599362,萧山区,宁围镇振宁路862号,佳境天城 振宁路地铁站,丽人,美发,120.265839,30.216078
69855353.0,潮童星少儿儿童模特,萧山佳境分部,,82603995,萧山区,市心北路佳境天城小区佳合苑3-4栋中间,,教育培训,其他才艺,120.26578,30.21902
69877429.0,路小缦九段厨林,,,,萧山区,民和路493号,,美食,创意菜,120.254913,30.230595
69878346.0,馥云花坊,,,15088788837,市心北路,振宁路829号,,购物,花店,120.26677,30.215592
69895336.0,老汤牛肉面,,,15167599179,萧山区,宁围街道民和路491-3-1号,,美食,面馆,120.255175,30.230124
69924768.0,老北京炸酱面,,,13559096139,市心北路,宁围街道振宁路811-2号,,美食,其他美食,120.267494,30.215638
69938263.0,金马丽景酒店,钱江世纪城店,,88179888,市心北路,皓月路158号,近飞虹路地铁站,酒店,经济型,120.256116,30.232499
70145330.0,断码鞋店,,,,萧山区,宁围镇顺丰家园南门文明路555号,,购物,鞋靴,120.2637,30.21289
70304322.0,开元物业,,,57175225,市心北路,皓月路188号万和国际万和商务酒店4楼,,生活服务,社区服务,120.256034,30.230955
70321324.0,绿强食品,,,,市心北路,市心北路563号海杰德大厦b栋2单元1302,,结婚,更多珠宝首饰,120.26884,30.21375
70321500.0,步西尼,,,,市心北路,市心北路1939号万和国际中心6幢7楼,,亲子,儿童服饰,120.257477,30.233801
70321579.0,四维卫浴,,,,市心北路,市心北路563号海杰德大厦b座6楼,,家装,厨卫洁具,120.269028,30.213551
70349919.0,Qtools高端进口母婴,佳境天城店,,15990048088,市心北路,宁围镇佳境街35号佳境天城小区,,亲子,婴儿用品,120.266789,30.216454
70382769.0,湘印图文,民和路店,,15868813336,市心北路,宁围镇民和路500号,,生活服务,图文快印,120.256012,30.231039
70401901.0,正祥五金,飞虹路店,,82690398,萧山区,飞虹路1125号,,家装,家用五金,120.24772,30.223867
70403447.0,饰觉门窗,,,13116780587,萧山区,文明路588号,,家装,门窗,120.262026,30.213068
70422179.0,阿亮水果店,,,15157193305;13073668900,萧山区,宁围街道合丰村佳丰北苑飞虹路1055号,,美食,水果店,120.24608,30.223467
70424413.0,川湘阁土菜馆,,,18261532126,萧山区,盈丰路307,,美食,农家菜,120.248214,30.224123
70506325.0,世纪酒庄,,,13732262175,市心北路,宁围镇盈丰街道9号,,购物,烟酒茶叶,120.259983,30.234143
70508447.0,金世界名店,,,,市心北路,盈丰街26号,,丽人,美发,120.259653,30.234507
70595570.0,林玲欧韩名店,,,15867136818,市心北路,盈丰街18号,,购物,其他服饰鞋包,120.259817,30.234468
70613707.0,嵊州小吃,,,13484319385,萧山区,宁围镇钱江世纪城飞虹路1131号佳丰北苑,,美食,江浙小吃,120.247899,30.22389
71698400.0,浙佳房产代理有限公司,,,,市心北路,顺发和美家飞虹路1886号,,生活服务,房产中介,120.26341,30.22966
71706784.0,碧桂园珑悦售楼处,,,,钱江世纪城,文明路与利丰路交叉口,,生活服务,房产中介,120.23933,30.21478
71718609.0,兆丰广告,,,,市心北路,市心北路振宁路海杰德大厦b幢2单元802,,生活服务,图文快印,120.269066,30.213696
71937997.0,全网通手机名店,,,,市心北路,宁围镇文明路483号,,购物,数码产品,120.267828,30.212804
71944270.0,十足,佳境天城店,,82823772,市心北路,佳境街14、15、16、17、18号,,购物,超市/便利店,120.267752,30.217145
72157450.0,千穗美睫美甲,,,13957054008,庆春路沿线,市心北路江南丽锦8-1303号,,丽人,美睫,120.266101,30.227545
72216993.0,平彤洋烟酒礼品商行,,,,市心北路,宁围镇盈丰农村合作银行西侧,,购物,烟酒茶叶,120.260282,30.23315
72241041.0,三替搬新家公司,,,87609357,萧山区,民和路288号,,生活服务,物流快递,120.255365,30.229278
72290433.0,盈丰创新家电,,,,市心北路,盈丰街与飞虹路交叉口西北150米,,家装,家用电器,120.262497,30.233878
72322219.0,名威指定专营店,,,,市心北路,盈丰街1号附近,,购物,数码产品,120.260852,30.233995
72341883.0,便捷新农都生活超市,,,18757122135;18957176005,萧山区,宁围镇盈丰路337号-341号,,美食,其他美食,120.248,30.22547
72344747.0,次坞打面馆,,,15168360168,市心北路,市心北路1535号,,美食,面馆,120.26369,30.2299
72373870.0,顺发恒业,,,,市心北路,市心北路777,,生活服务,公司企业,120.26857,30.21725
72393203.0,金渔具,,,83533966,萧山区,宁围街道文明路533-536号,,购物,运动户外,120.2646,30.212869
72530477.0,宁盛门业,,,13819499213;15869142293,萧山区,宁围镇文明路510号,,家装,门窗,120.266651,30.212852
72597947.0,金鸡路利二花苑1幢1104,,,15988107525,萧山区,金鸡路利二花苑,,丽人,纹绣,120.241638,30.235494
72870320.0,艺美专业造型,,,,市心北路,盈丰街10号,,丽人,美发,120.26025,30.234384
72979610.0,江南门窗,,,,市心北路,宁围镇文明路497号,,家装,门窗,120.267182,30.212812
73028209.0,乔都造型护肤SPA,,,15068172376,萧山区,振宁路858-864号,,丽人,美发,120.265945,30.215988
73059924.0,美居乐窗帘布艺墙纸照明,,,18072961600,萧山区,盈丰路与飞虹路交叉口北150米,,家装,家用电器,120.248968,30.224472
73173580.0,安雅兮.韩式半永久,,,,萧山区,钱江世纪城,,丽人,纹绣,120.253419,30.213054
73590214.0,韩国脱脂猪蹄,世纪城店,,13625814199,萧山区,宁围街道飞虹路丰瑞北苑1293号,,美食,韩国料理,120.251167,30.224507
73619848.0,顺旺基快餐超市,,,57138877,市心北路,宁围镇万和国际民和路500号浙江民营企业发展大厦企业中心,,美食,快餐简餐,120.25626,30.231108
73620592.0,程记土菜馆,钱江世纪城店,,18668439923,萧山区,飞虹路1109号,,美食,苏浙菜,120.24716,30.22371
73750551.0,南京小笼蒸包,,,18355508366,萧山区,宁围街道利丰路670号,,美食,包子,120.255447,30.228443
73991132.0,零食小铺,,,13588256089,萧山区,宁围镇文明路567号,,美食,更多食品保健,120.26283,30.213099
74262467.0,黑泷太郎,利丰路店,,13567186028;18858299089,萧山区,宁围街道利丰路668号,,美食,茶饮果汁,120.25531,30.228324
75123326.0,M-today美天健身私教中心,,,57572511,市心北路,民和路联合中心A座15A,,运动健身,私教工作室,120.255324,30.230032
75165339.0,青瓷酒店式公寓,,,18770289935,萧山区,宁围镇民和路与利丰路交叉口世纪晶钻1号楼409室,,酒店,经济型,120.25674,30.230108
75191359.0,纱窗小方,,,13055888817,萧山区,文明路844号,,家装,门窗,120.251433,30.213244
75203106.0,象王洗得好,,,,萧山区,利丰路683号,,生活服务,洗衣店,120.255362,30.228996
75207212.0,合丰新业大厦停车场,,,,钱江世纪城,扬帆路与笃学路交叉口东100米,,爱车,停车场,120.242591,30.220343
75209679.0,GEC港汇中心停车场,,,,市心北路,市心北路与S4机场高速入口交叉口西150米,,爱车,停车场,120.268394,30.220432
75210067.0,丰北二苑停车场,,,,钱江世纪城,利丰路与民和路交叉口东南150米,,爱车,停车场,120.255943,30.228569
75214065.0,停车场,,,,萧山区,民和路与飞虹路交叉口北150米,,爱车,停车场,120.258208,30.227274
75231477.0,21世纪不动产,,,82651895,萧山区,宁围镇振宁路838号,,生活服务,房产中介,120.266342,30.215965
75238533.0,海杰德大厦停车场,,,,市心北路,市心北路与文明路交叉口西100米,,爱车,停车场,120.2686,30.213589
75249576.0,振宁大药房,,,82821012,钱江世纪城,宁围镇振宁路867号,,医疗健康,药店,120.265711,30.215608
75331257.0,孟飞图文,,,82692410,萧山区,宁围街道丰瑞南苑北门振宁路1511号,,生活服务,图文快印,120.2507,30.21456
75382357.0,停车场,,,,萧山区,利丰路与博奥路交叉口东100米,,爱车,停车场,120.247072,30.226931
75386534.0,停车场,,,,萧山区,扬帆路与民和路交叉口东北150米,,爱车,停车场,120.260345,30.224052
75389267.0,浙江民营企业发展大厦停车场,,,,市心北路,民和路500号附近,,爱车,停车场,120.255974,30.231245
75403289.0,祥腾财富中心停车场,,,,萧山区,杭州市萧山区利丰路与民和路交叉口东北150米,,爱车,停车场,120.257371,30.229866
75408185.0,和平房屋中介,,,,市心北路,下涯镇和美家园11栋,,生活服务,房产中介,120.264066,30.228795
75411606.0,天筑房产,,,,萧山区,飞虹路1277号,,生活服务,房产中介,120.251057,30.224604
75504155.0,中国联通,,,,市心北路,盈丰街37号,,生活服务,联通营业厅,120.259037,30.234352
75508215.0,巨晋房产,,,,市心北路,宁围镇市心北路盈丰家具厂,,生活服务,房产中介,120.258819,30.234236
75518945.0,杭州盈二药店,,,82862280,钱江世纪城,宁围街道飞虹路1045号,,医疗健康,药店,120.245635,30.223548
75519179.0,怡升房产,,,,萧山区,飞虹路北50米,,生活服务,房产中介,120.24574,30.223571
75520517.0,共银房产,,,,萧山区,盈丰路209,,生活服务,房产中介,120.248188,30.224207
75530248.0,金易大药房,,,15306709638;83737699,钱江世纪城,飞虹路1115号,,医疗健康,药店,120.247389,30.223806
75533276.0,杭州喜乐堂药店,,,13805729186,萧山区,飞虹路1237号,,医疗健康,药店,120.250083,30.224371
75585718.0,琅琊房产,,,15088772493,萧山区,宁围镇飞虹路1095号佳丰北苑,,生活服务,房产中介,120.246744,30.223712
75592332.0,停车场,,,,萧山区,盈丰路与飞虹路交叉口北100米,,爱车,停车场,120.24877,30.224297
75593954.0,三宏国际大厦停车场,,,,钱江世纪城,民和路与皓月路交叉口南100米,,爱车,停车场,120.254153,30.231107
75631683.0,颜·烘焙,萧山店,,13675875037,萧山区,飞虹路1507号,金昌春和钱塘商铺,美食,面包烘焙,120.255467,30.225903
75660436.0,阿亮水果店,钱江世纪城店,,15157193305,萧山区,宁围街道合丰村佳丰北苑飞虹路1055号,,美食,水果店,120.24587,30.22351
75734669.0,信业居房产,,,82165509,市心北路,宁围镇佳境天城佳境街41号,,生活服务,房产中介,120.266911,30.216352
75740015.0,银行卡助农取款服务点,,,82711116,萧山区,宁围街道振宁路顺丰家园北门,,生活服务,营业网点,120.26289,30.21557
75756579.0,停车场,,,,钱江世纪城,利丰路与民和路交叉口西150米,,爱车,停车场,120.254967,30.22946
75879198.0,为了家地产,,,,市心北路,宁围镇市心北路563号海杰德大厦3单元9楼,,生活服务,房产中介,120.26904,30.21389
75957776.0,萧山农商银行,,,83897868,市心北路,市心北路874号,,生活服务,营业网点,120.269109,30.219646
76021101.0,快祥房产,,,18868788491,萧山区,宁围镇飞虹路1251号,丰瑞北苑南门,生活服务,房产中介,120.25038,30.22434
76036540.0,飞虹口腔,,,82137119,萧山区,飞虹路1203号,飞虹路地铁口,医疗健康,齿科,120.249112,30.224096
76219197.0,顺丰家园停车场,,,,钱江世纪城,振宁路与永晖路交叉口南200米,,爱车,停车场,120.265112,30.214363
76226296.0,泰丰图文广告,,,83692596,市心北路,宁围镇振宁路815号,,生活服务,图文快印,120.267426,30.215405
76229799.0,停车场,,,,市心北路,振宁路400-430号附近,,爱车,停车场,120.268066,30.215141
76263971.0,洁丽洗得好,,,,市心北路,市心北路顺发·和美家（西北五门）附近,,生活服务,洗衣店,120.266333,30.228313
76264117.0,为诚健康药店,,,,市心北路,宁围镇市心北路与飞虹路交叉口顺发和美家底商,,医疗健康,药店,120.263214,30.229811
76266630.0,顺发·江南丽锦停车场,,,,市心北路,市心北路与扬帆路交叉口西150米,,爱车,停车场,120.265939,30.227118
76268073.0,口碑地产,,,13067775128,市心北路,宁围镇皓月路万和国际152号口,,生活服务,房产中介,120.256417,30.232846
76307371.0,万科大家·世纪之光停车场,,,,萧山区,振宁路与民和路交汇处,,爱车,停车场,120.259328,30.214963
76379384.0,往来图文,,,83692596,市心北路,振宁路811号丰盛大厦一楼,,生活服务,广告印刷,120.267915,30.215281
76409734.0,崇本堂大药房,,,,萧山区,宁围街道利丰路687号国泰科技大厦,,医疗健康,药店,120.255417,30.229019
76659783.0,意纯意索拉雅酒庄,,,13586968978,萧山区,宁围街道泰宏巷28号联合中心南区2幢1101室,,美食,茶饮果汁,120.255401,30.230197
76660048.0,麦香千口东北水饺,世纪城店,,15757193198,市心北路,宁围街道皓月路158号2层,,美食,饺子,120.255869,30.232444
76661715.0,漫座茶餐厅,,,18868785480,萧山区,民和路513-8号附近,,美食,茶餐厅,120.2541,30.230489
76728429.0,绿都黄龙御玺,,,4008929578,市心北路,宁围镇市心北路与市心路交叉口西南100米港汇中心,,生活服务,更多生活服务,120.267411,30.220945
76737930.0,企明图文,,,82136218,钱江世纪城,宁围镇钱江世纪城民和路联合中心499号,,家装,半包装修,120.254718,30.230399
76894932.0,凤凰地毯,,,,萧山区,钱江世纪城,,家装,床品家纺,120.253419,30.213054
76919295.0,青海牛奶,,,,市心北路,宁围街道市心北路519-521号,,购物,超市/便利店,120.269014,30.213022
76932788.0,武尚舞国际艺术培训中心,,,82155716,市心北路,宁围街道鸿宁路1909号望京c2座902室,,教育培训,其他运动培训,120.254234,30.236523
76963963.0,乐购名企便利店,钱江世纪城店,,13282180335,市心北路,宁围街道富业巷3号浙江民营企业发展大厦1幢一层,,购物,超市/便利店,120.256119,30.2312
76964147.0,海泽小吃,飞虹路店,,15825502796,萧山区,宁围街道飞虹路1059-1061号,,美食,江浙小吃,120.246099,30.223571
76964169.0,品俊骨头饭·黄焖鸡米饭,和美家店,,15355458929,市心北路,和美家北门,,美食,黄焖鸡,120.263241,30.229576
76964965.0,远程办公家具,萧山店,,87376070,萧山区,宁围街道丰东村文明路558号,,家装,成品家具,120.263549,30.212884
76994253.0,可可便利店,钱江世纪城店,,13626716205,萧山区,宁围街道利丰路674号,,购物,超市/便利店,120.255056,30.228333
76998579.0,中国兰州牛肉拉面,钱江世纪城店,,13575742003,萧山区,钱江世纪城飞虹路1297-1299号,,美食,面馆,120.251127,30.224344
77002514.0,黑泷太郎,佳境店,,,市心北路,宁围街道佳境街3号,,美食,茶饮果汁,120.268297,30.217561
77013378.0,杭州叮当酒店公寓,,,18505816981,市心北路,杭州宁围街道钱江世纪城民和路486号世纪晶钻,,酒店,经济型,120.256134,30.231083
77023922.0,金德管业,飞虹路店,,,萧山区,飞虹路1251号,,家装,管材管件,120.2503,30.224159
77023978.0,牛军伟电动工具五金,,,15267488892,萧山区,萧山宁围镇世纪新城飞虹路1221-1223,,家装,家用五金,120.249783,30.224153
77024233.0,萧杭五金建材店,,,15268111940,萧山区,宁围镇文明路617号,,家装,家用五金,120.260949,30.212912
77059055.0,宝马4s店,,,22689999,市心北路,市心北路589号,,爱车,4S店,120.268967,30.21448
77076192.0,荣利消防器材经营部,,,82871136,市心北路,盈丰街23号附近,,购物,数码产品,120.25945,30.234269
77096046.0,公共厕所,,,,市心北路,皓月路150-2号附近,,生活服务,厕所,120.255733,30.231947
77125001.0,学军中学附属文渊中学,,,,萧山区,利丰路与扬帆路交叉口南150米,,教育培训,高中,120.239471,30.218906
77143680.0,古月窗帘,,,15988137810,萧山区,宁围镇振宁路961号,,家装,窗帘,120.263447,30.215538
77161959.0,万禹汇美食广场,,,82680088,市心北路,皓月路和民和路交叉路口,,美食,快餐简餐,120.254593,30.232537
77184905.0,新起航文具用品,,,13675867860,市心北路,宁围街道盈丰街盈丰市场,,购物,办公/文化用品,120.260148,30.234764
77208020.0,橙子户外用品有限公司,,,18868713692,市心北路,市心北路绿都港汇中心,,购物,运动户外,120.267939,30.220743
77213048.0,优佳教育,,,18758121818,萧山区,文明路539号,,教育培训,中小学综合辅导,120.26437,30.212889
77213626.0,丰盛建材研究所,,,,市心北路,盈丰街2号附近,,生活服务,政府机构,120.26125,30.234258
77221073.0,御品贡茶,,,15905712196,萧山区,宁围街道飞虹路1135号,萧山农商银行南面,美食,茶饮果汁,120.248057,30.22389
77261831.0,小桑树染烫改变专门店,丰北店,,18506166416;18538615516,市心北路,利丰路612号（金鸡路得丰路交叉口，丰北二苑底商，丰北二苑北门旁）,金鸡路得丰路交叉口，丰北二苑底商，丰北二苑北门旁,丽人,美发,120.253488,30.227734
77274736.0,恒吉文化投资有限公司,,,13575710171,市心北路,宁围镇民和路398号浙江民营企业发展大厦裙楼,,生活服务,其他金融,120.25667,30.231076
77281059.0,彤彤蛋糕,,,15869142240,市心北路,宁围街道盈丰路335-2号,,美食,面包烘焙,120.260604,30.235342
77292916.0,佑米造型烫染,港汇中心店 ,,15158154356;15267012349,市心北路,市心北路871号1号楼28层09B室（地铁2号线振宁B出口）,,丽人,美发,120.267786,30.220344
77294585.0,体楷健身器材跑步机专营店,奥体中心店,,86583681;15801872517,萧山区,钱江世纪城飞虹路1307号,靠近书音路,购物,运动户外,120.251643,30.22461
77361571.0,绿源电动车,,,82873315,萧山区,宁围街道盈丰路与飞虹路交叉口丰瑞北苑会所旁,往南100米,购物,自行/电动车及配件,120.248948,30.224409
77365406.0,美妍美妆,,,82736162,萧山区,金鸡路与飞虹路交叉口东北200米,,丽人,化妆品,120.255334,30.225768
77383249.0,谭氏汽车养护中心,,,,萧山区,文明路与永晖路交叉口北100米,,爱车,维修保养,120.26556,30.213425
77428628.0,勾庄蔬菜水果直销店,,,82593930,市心北路,佳境街21-23号,,美食,生鲜,120.267353,30.21674
77442062.0,振华国际美容美发连锁,,,57171387,萧山区,飞虹路佳丰北苑1041号,,丽人,美发,120.245521,30.223393
77476236.0,元宝鲜果屋,春和钱塘,,18758200636,萧山区,宁围街道飞虹路1527号,,美食,水果店,120.25608,30.225967
77631275.0,阿明饭店,,,83309789,市心北路,盈丰街附近,,美食,快餐简餐,120.26091,30.233498
77666832.0,萧山区世纪飞虹幼儿园,,,,萧山区,飞虹路1077号佳丰北苑15幢,,教育培训,幼儿园,120.247858,30.224977
77675172.0,骨头饭,,,15059004887,市心北路,飞虹路1888号,,美食,快餐简餐,120.26344,30.229719
77750516.0,新星川菜馆,,,,市心北路,盈丰街附近,,美食,快餐简餐,120.261516,30.234117
77761073.0,光头面馆,盈丰街店,,,市心北路,广场路和盈丰街的交叉口附近,,美食,面馆,120.2582,30.234378
77837767.0,福建沙县小吃,,,15058130559,市心北路,丰盈线附近,,美食,快餐简餐,120.26475,30.231319
77855756.0,陶乡小吃,,,18357152240,萧山区,飞虹路川湘阁土菜馆北50米,,美食,小吃,120.248139,30.224406
77865872.0,四川正宗川菜馆,,,,市心北路,宁围镇盈丰街菜场门口邮政储蓄银行往东,,美食,川菜馆,120.264753,30.232035
77867648.0,三江源牛肉拉面,盈丰街店,,,市心北路,盈丰街4号附近,,美食,面馆,120.260964,30.233878
77971621.0,中荣消防技术服务有限公司,,,,市心北路,宁围镇民和路500号民企大厦A座4楼,,爱车,维修保养,120.256561,30.231403
78010797.0,丰瑞南苑幼儿园,,,,市心北路,宁围镇钱江世纪城,,亲子,幼儿园,120.2568,30.235829
78027792.0,冠航科技有限公司,,,15158005421,市心北路,民和路500号民企大厦b座1702,,生活服务,公司企业,120.256897,30.231571
78399883.0,君方商务咨询有限公司,,,,市心北路,宁围镇民和路500号浙江民营企业发展大厦a座27楼,,生活服务,公司企业,120.256151,30.231022
78931596.0,百登健康管理有限公司,,,,市心北路,宁围镇民和路500号浙江民营企业发展大厦b幢7楼,,丽人,美容/SPA,120.25652,30.231239
78939938.0,朵克莉教育咨询有限公司,,,82267297,市心北路,农业大厦2栋1307,,教育培训,美妆从业,120.26935,30.22053
78960888.0,泛销互联网科技有限公司,,,,市心北路,宁围镇富业巷3号23号浙江民营企业发展大厦A座1601-1室,,生活服务,公司企业,120.256134,30.231066
78976243.0,欧韵装饰,,,,市心北路,宁围镇民和路500号浙江民营企业发展大厦10楼,,家装,装修设计,120.256126,30.230953
78978542.0,一鸿设计,,,56670880,萧山区,宁围镇民和路三宏国际1001室,,家装,装修设计,120.254158,30.231243
78980373.0,芙芙定制,,,,市心北路,宁围镇民和路500号浙江民营企业发展大厦B座5层,,结婚,西服定制,120.256915,30.231538
78995962.0,加汇门业,,,,市心北路,宁围镇钱江世纪城民和路500号浙江民营企业发展大厦A幢14楼,,家装,门窗,120.256128,30.230961
79019904.0,罗其窗帘,萧山分店,,15906657428,萧山区,民和路480号,,家装,窗帘,120.256546,30.23003
79032877.0,九烁光电工程技术有限公司,,,82836186,萧山区,民和路525号三宏国际大厦1002室,,丽人,脱毛,120.254791,30.231201
79046575.0,宁围利二股份经济联合社,,,,钱江世纪城,之江西路与利二路交叉口东北150米,,生活服务,营业网点,120.243225,30.235144
79061103.0,萧文置业,,,,市心北路,宁围镇皓月路176号万和商务酒店2楼,,生活服务,房产中介,120.256407,30.233072
79061593.0,玖鱼科技有限公司,,,4001077110,钱江世纪城,民和路479号国泰科技大厦602室,,生活服务,公司企业,120.255359,30.229276
79103557.0,新天龙男装,振宁路店,,82333905,萧山区,振宁路999号,,结婚,西服定制,120.262094,30.215614
79109312.0,简典家具,,,18458117676,萧山区,飞虹路1287号,,家装,成品家具,120.25132,30.224661
79116344.0,鼎典创新设计顾问有限公司,,,18899856586,市心北路,宁围镇浙江民营企业发展大厦B座3楼,,家装,装修设计,120.256897,30.231543
79150377.0,超模训练营,,,,市心北路,宁围镇民和路民营企业发展大厦A3层,,生活服务,更多生活服务,120.256126,30.230953
79174050.0,花泽园艺工程有限公司,,,,萧山区,宁围镇民和路联合中心B座14楼,,购物,花店,120.255417,30.230277
79175591.0,名仕之家,,,,市心北路,宁围镇市心北路811号农商银行旁,顺发佳境天城底商,丽人,美发,120.268241,30.218255
79232934.0,哈宝小吃,,,15372027734,市心北路,宁围街道盈丰路355-1号,,美食,快餐简餐,120.262012,30.233885
79281070.0,欧帆商务酒店,,,82515262,市心北路,宁围街道飞虹路1872号顺发和美家临街商铺楼，近地铁2号线飞虹路D出口,,酒店,经济型,120.262842,30.229161
79348013.0,鸿湖广告,,,82767860,萧山区,文明路593-594号,,生活服务,图文快印,120.261882,30.212882
79501722.0,一鸿市场研究中心,,,56670880,市心北路,民和路525号三宏国际大厦1001室,,生活服务,公司企业,120.254166,30.231243
79524277.0,芝麻开门萧山分公司,,,,萧山区,振宁路1409号,,生活服务,物流快递,120.253261,30.21485
79553949.0,威磊服饰公司,,,82893561,萧山区,宁围镇合丰村1组,,生活服务,公司企业,120.24333,30.216115
79555627.0,浙江丰宇纺织杭州办事处,,,,萧山区,文明路596号,,生活服务,公司企业,120.261671,30.212898
79574063.0,樱花美学·小丸子,,,18758306654,萧山区,钱江世纪城,,丽人,纹绣,120.253419,30.213054
79601527.0,阿K果园子,萧山宁东店,,87326305,萧山区,宁围镇文明路617号附近,,美食,水果店,120.260867,30.212961
79700696.0,智鹍科技,,,,钱江世纪城,宁围街道泰宏巷28号联合中心南区2幢1102室,,生活服务,公司企业,120.255408,30.230199
79803579.0,路小缦,钱江世纪城店,,57570877,钱江世纪城,民和路513-516号,,美食,浙菜,120.254462,30.230669
79822124.0,中国体育彩票,,,15158171281,萧山区,仁孝路与飞虹路交叉口东北50米,,生活服务,彩票,120.251046,30.224503
79842387.0,丰意饭店,,,13376839957,萧山区,盈丰路298号,,美食,快餐简餐,120.248971,30.224224
79934508.0,巴比馒头,飞虹路店,,4006758517,萧山区,飞虹路1095号,,美食,包子,120.24668,30.2237
79989203.0,小意面馆,,,,萧山区,宁围镇振宁路1005号,,美食,面馆,120.26195,30.21561
80013821.0,乔菜面馆,,,,市心北路,振宁路807号附近,振宁路地铁站西南,美食,面馆,120.267609,30.215428
80051371.0,丰二蜡烛店,,,,萧山区,振宁路1481号,,生活服务,殡葬用品,120.25133,30.21474
80061191.0,燕军蜡烛店,,,13575719498,钱江世纪城,盈丰路311,,生活服务,殡葬用品,120.24815,30.22431
80219476.0,攀龙资管中财期货,,,,钱江世纪城,宁围镇民和路479号国泰科技大厦A座14楼,,生活服务,证券投资,120.25536,30.22928
80323990.0,民和路马军面馆,,,,萧山区,民和路474,,美食,面馆,120.25668,30.22993
80352254.0,丰东蜡烛店,,,82605563,萧山区,文明路532号,,生活服务,殡葬用品,120.26461,30.212865
80392911.0,家庭式美容美体抗衰中心,,,15355042192,萧山区,振宁路861号,,丽人,SPA美体,120.265794,30.215438
80419918.0,利一村村邮站,,,,钱江世纪城,博奥路与奔竞二路交叉口东150米,,生活服务,邮局,120.24362,30.22907
80439972.0,比巴馒头专卖店,,,,市心北路,飞虹路附近,,美食,包子,120.26429,30.23357
80479191.0,国兴面馆,,,,萧山区,宁围镇盈一村村委东边,,美食,面馆,120.26489,30.23519
80495380.0,彩票销售店,,,,萧山区,宁围街道丰盈线农村合作银行旁,,生活服务,彩票,120.2646,30.23561
80526746.0,东北一家人,,,13956755517,市心北路,市新北路737号,,美食,东北菜,120.268162,30.216861
80671463.0,杭二中,萧山分校,,,市心北路,丰东村丰二路钱江世纪城,,教育培训,高中,120.26823,30.21933
80743601.0,丽鸿养生会所,,,,市心北路,振宁路821,,丽人,美容/SPA,120.26709,30.21557
80748060.0,欣享日用品商行,,,,萧山区,振宁路1527号,,丽人,化妆品,120.25015,30.21461
80752900.0,奕豆围棋,宁围分校,,,萧山区,永晖路与济仁路交叉口东北50米,,教育培训,棋牌培训,120.26578,30.21902
80756844.0,迪美造型,,,,市心北路,市心北路与扬帆路交叉口西北150米,,丽人,美发,120.266288,30.228344
80782135.0,秀发之美在于养,第1108分店,,,萧山区,宁围镇振宁路佳境天城境合苑,,丽人,美发,120.266609,30.216209
80826705.0,轩博网络,,,18329112030,萧山区,飞虹路1235-1237号附近,丰瑞北苑附近,休闲娱乐,网吧/电竞,120.250137,30.224099
80845558.0,业慧批发超市,,,15869107515,萧山区,钱江世纪城飞虹路1311号,,购物,超市/便利店,120.251773,30.224767
80943613.0,友庆轮胎批发,,,,市心北路,文明路499号,,爱车,配件厂商,120.267151,30.212811
80985676.0,亚加装潢,,,4000908610-222571,萧山区,民和路481号,,家装,半包装修,120.255306,30.229915
81138403.0,桂兰童装,,,,市心北路,鸿宁路与鸿达路交叉口南150米,,亲子,儿童服饰,120.26067,30.23501
81151670.0,亚萍童装,,,,市心北路,盈一皓月路盈丰农副产品综合市场附近,万向中学南,亲子,儿童服饰,120.260174,30.235054
81155652.0,条凤童装,,,,市心北路,鸿宁路与鸿达路交叉口南150米,,亲子,儿童服饰,120.260596,30.235011
81164959.0,晓晓童装,,,,市心北路,宁围镇盈一村,盈丰农贸市场东门,亲子,儿童服饰,120.260786,30.235147
81197272.0,国虹童装店,,,,市心北路,宁围镇盈丰综合市场,,亲子,儿童服饰,120.26051,30.2354
81205645.0,膜法传奇1853,,,,萧山区,振宁路842号,,丽人,化妆品,120.266001,30.216017
81253535.0,杭二中,,,,萧山区,振宁路北200米,,教育培训,初中,120.252493,30.216612
81371523.0,盈丰立忠食品商店,民和店,,13967101515,萧山区,宁围镇民和路491-7号联合中心B幢底座,,购物,超市/便利店,120.254866,30.230167
81392748.0,好杰电器,,,,萧山区,宁围镇飞虹路佳丰北苑,,家装,家用电器,120.24528,30.22344
81417949.0,标奇服饰,,,13758276284,市心北路,佳境天城天合苑3栋1单元1602,,购物,服装,120.26796,30.216841
81462879.0,世纪华联超市,佳丰北苑店,,82212281,萧山区,宁围镇飞虹路佳丰北苑1091,,购物,超市/便利店,120.246606,30.223686
81477540.0,捷西服饰,,,,萧山区,宁围镇民和路500号民企大厦a座19楼,,购物,服装,120.25576,30.23054
81482093.0,亲菜,,,,市心北路,振宁路786-1号附近,,购物,超市/便利店,120.267665,30.216523
81483112.0,阿宝烟酒,,,13071813123,萧山区,北干街道文明路幸福时代公寓,,购物,烟酒茶叶,120.26681,30.21284
81537471.0,孙记铭创图文,,,82961582;19967343922,萧山区,振宁路1539号,,购物,烟酒茶叶,120.249686,30.214512
81551264.0,雅迪电动车,,,18069834389,萧山区,守信路与飞虹路交口西行50米路北,,购物,自行/电动车及配件,120.245924,30.223509
81552830.0,菊芳服饰,,,,市心北路,鸿宁路萧山图书馆盈一村分馆附近,,购物,服装,120.260596,30.235015
81574795.0,各大品牌空调专卖店,,,,钱江世纪城,民和路483号附近,,购物,数码产品,120.25536,30.22928
81594214.0,次坞打面,佳丰北苑,,13750830431,萧山区,宁围街道飞虹路1135号,,美食,面馆,120.248039,30.223904
81647360.0,大卓电器,,,,萧山区,飞虹路1249号,,家装,家用电器,120.25021,30.22416
81709242.0,中老年服装,,,,萧山区,文明路564-565号附近,,购物,服装,120.263359,30.212851
81726155.0,堡驰名烟名酒,,,18857161601,萧山区,宁围镇振宁路854号,,购物,烟酒茶叶,120.265891,30.216096
81731463.0,明发农产品购销部,,,,萧山区,博奥路与奔竞二路交叉口东150米,,购物,超市/便利店,120.24342,30.22939
81753733.0,丹妮,,,13666601491,市心北路,振宁路809,,购物,其他服饰鞋包,120.26753,30.21551
81866095.0,随便拿水果超市,,,,市心北路,鸿达路萧山图书馆盈一村分馆附近,,购物,超市/便利店,120.26072,30.23602
81885982.0,苏宁电器,,,15392832219,萧山区,飞虹路1315,,家装,家用电器,120.25185,30.22469
81902754.0,阿萍服装,,,,市心北路,鸿宁路与鸿达路交叉口南200米,,购物,服装,120.260596,30.235012
81928533.0,VnGO,,,,市心北路,心北路845号附近,,购物,超市/便利店,120.26871,30.2194
81978411.0,潇洒男装,,,,市心北路,盈丰农副产品综合市场,盈丰街北,购物,服装,120.260415,30.234968
82003618.0,三姐妹服装店,,,,市心北路,鸿宁路与鸿达路交叉口西南200米,万向中学南,购物,服装,120.260601,30.235018
82003992.0,青青羽绒服,,,,市心北路,盈丰街附近,,购物,服装,120.26104,30.23387
82011545.0,喜士多便利店,,,18857118624,钱江世纪城,民和路600号,,购物,超市/便利店,120.253616,30.233877
82080583.0,阿琳便利店,,,,市心北路,宁围镇市心北路737号51风尚酒店后面,,购物,超市/便利店,120.2682,30.21679
82093632.0,卓文超市,,,15381152503,钱江世纪城,盈丰路317号,,购物,超市/便利店,120.248135,30.224399
82106456.0,明康汇生鲜,佳境天城店,,17328869710,市心北路,佳境街19号,流金广场旁,美食,生鲜,120.267942,30.217145
82158161.0,朋菲克生活超市,,,17767256939,钱江世纪城,宁围镇振宁路855号,,购物,超市/便利店,120.265889,30.215606
82170201.0,美国开利中央空调,炯智奥体店,,82190719,萧山区,飞虹路1209号,,家装,家用电器,120.2494,30.22421
82180131.0,李飞电动车配件批发,,,,萧山区,文明路591-592号附近,,购物,自行/电动车及配件,120.262119,30.212907
82197485.0,华华鞋店,,,,市心北路,鸿宁路与鸿达路交叉口南200米,,购物,鞋靴,120.260579,30.235012
82198362.0,金利浦精品男装,,,,市心北路,市心北路829号,,购物,服装,120.267991,30.218788
82201342.0,茶英服装店,,,,市心北路,盈丰街与萧钱线交叉口东200米,,购物,服装,120.260004,30.235012
82233806.0,9便利店,,,18258124450,萧山区,民和路与飞虹路交叉口西北50米,,购物,超市/便利店,120.257559,30.226556
82234567.0,振兴通讯,盈丰街店,,,市心北路,盈一村645号,,购物,数码产品,120.26234,30.23361
82320536.0,德福家电,,,,市心北路,萧钱线与鸿宁路交叉口南50米,,购物,数码产品,120.258156,30.236543
82368662.0,明乐电器,,,,市心北路,市心北路511号,,家装,家用电器,120.269019,30.212911
82401772.0,nini佳境,天城店,,,萧山区,振宁路836,,购物,其他服饰鞋包,120.26637,30.21603
82440382.0,小凤文具内衣百货,,,13606719790,钱江世纪城,文明路568-569号,,购物,超市/便利店,120.263198,30.212858
82587416.0,光明通信,,,,萧山区,宁围镇上海联都超市,飞虹路地铁站西北,购物,数码产品,120.26162,30.23373
82709945.0,瑞祥房地产代理有限公司,,,82820580,市心北路,流金广场附近,,生活服务,房产中介,120.267783,30.217127
82721163.0,诗奈尔高端健康洗衣会所,no.02店,,13567187960,萧山区,文明路563号,,生活服务,洗衣店,120.263351,30.212848
82725727.0,雨虹防水,,,,市心北路,萧钱线,,家装,厨卫洁具,120.25817,30.236429
82769969.0,农村合作银行,便民服务点博奥路支行,,,萧山区,鹏起路附近,,生活服务,营业网点,120.2436,30.22915
82794936.0,冠臣房产代理有限公司,,,15005715120,市心北路,市心北路农业大厦1幢12层,,生活服务,房产中介,120.26935,30.22053
82800613.0,易乾财富,,,,市心北路,心北路1808号,,生活服务,其他金融,120.260312,30.233226
82894208.0,蓝贝电动车,,,82873315,萧山区,丰瑞北苑306号,,购物,自行/电动车及配件,120.25074,30.224651
82899770.0,朝阳轮胎电动车专用,,,,市心北路,盈丰街41号,,购物,自行/电动车及配件,120.25889,30.234329
82899905.0,辉煌门窗,,,13968106408;15068819462,萧山区,飞虹路丰瑞北苑1231号,,家装,门窗,120.24982,30.22421
82915553.0,彩票销售店,,,,市心北路,509振宁路,,生活服务,彩票,120.26687,30.215568
82926653.0,远东自行车实业有限公司,,,,市心北路,市心北路1529号,,购物,自行/电动车及配件,120.266583,30.230372
83031675.0,小颜五金商行,,,15384044133,萧山区,宁围镇盈丰路308号丰瑞北苑,,家装,家用五金,120.248928,30.224416
83073527.0,21世纪不动产,飞虹路,,82230557,市心北路,市心北路1537号,,生活服务,房产中介,120.26354,30.229882
83079904.0,盈一五金建材店,,,,市心北路,丰盈线附近,,家装,家用五金,120.265232,30.231456
83081421.0,盈丰桥头烟酒行,,,82690909,市心北路,盈丰街2号附近,,购物,烟酒茶叶,120.259617,30.234517
83117265.0,柯铭汽车服务有限公司,,,,市心北路,丰盈线与市心北路交叉口东50米,,爱车,维修保养,120.265231,30.230145
83135898.0,祥腾房地产开发有限公司,,,82619191,市心北路,市心北路附近,,生活服务,房产中介,120.260319,30.233035
83166565.0,瑞河管业,,,82605137,市心北路,宁围文明路488-489号,,家装,管材管件,120.267449,30.212842
83178953.0,欣欣家纺,,,,市心北路,盈丰街,,家装,床品家纺,120.262049,30.233598
83201878.0,赛维健康洗衣生活馆,,,15068176536,钱江世纪城,盈丰路319号佳丰北苑东北2门南20米,,生活服务,洗衣店,120.248147,30.224476
83234007.0,农村商业银行,盈丰支行,,82865160,市心北路,市心北路盈一外来人员公寓,,生活服务,营业网点,120.260399,30.233049
83265809.0,恒瑞,,,82765721,市心北路,佳境街36号,,家装,建材,120.267,30.21651
83292967.0,盈丰书店,,,,市心北路,盈丰街30号附近,,购物,书店音像,120.25932,30.23461
83347331.0,24k摄影,,,,市心北路,民和路,世纪晶钻对面,购物,数码产品,120.25656,30.230828
83365359.0,宁围兽医站,,,,萧山经济开发区,文明路510号,,宠物,宠物医院,120.266518,30.212796
83366934.0,平光烟酒礼品商行,,,,萧山区,文明路570号,,购物,烟酒茶叶,120.26314,30.212899
83427521.0,51风尚酒店停车场,,,,市心北路,市心北路783-785号附近,市心北路西,爱车,停车场,120.268616,30.21788
83433742.0,CoMo专业烫发/染发/接发,联合中心店,,13957118745;15565556577,钱江世纪城,民和路联合中心D座19楼(网络部里面),电梯左侧,丽人,美发,120.254784,30.230745
83479957.0,可可小厨·面馆,民和路店,,13506772319,萧山区,宁围镇民和路491-5号A座,,美食,面馆,120.255478,30.229846
83511050.0,佳丰果业,,,15268561999,萧山区,宁围街道合丰村盈丰路319号,,美食,水果店,120.247905,30.225358
83539293.0,诚信铝门窗,,,15267056706,萧山区,飞虹路1291号,,家装,门窗,120.251367,30.224596
90040152.0,成玉生鲜食品,,,13967156654,萧山区,宁伟街道飞虹路1541号,,美食,水果生鲜,120.256132,30.225993
90053819.0,华联超市,,,13185007826,萧山区,宁围镇飞虹路春和钱塘1栋,,购物,超市/便利店,120.257245,30.226367
90092746.0,禾齐客,,,,市心北路,宁围街道丰东村振宁路805号,,美食,快餐简餐,120.26771,30.2155
90280647.0,萬佳门大饭堂,萧山店,,13362108977,萧山区,钱江世纪城利丰路705号,,美食,快餐简餐,120.255736,30.229169
90283565.0,楚钰果屋,,,13735556725,市心北路,宁围镇振宁路833号,浙江省杭州市萧山区宁围镇振宁路833号,美食,水果店,120.266824,30.215629
90317162.0,尚慧徐记饭店,民和路店,,18810798182,萧山区,宁围街道民和路496号,,美食,浙菜,120.256181,30.230905
90330226.0,杭州悦家公寓,,,13515715473,萧山区,民和路联合中心,,酒店,经济型,120.25512,30.229912
90330282.0,杭州领航酒店,,,57185617;15336515333,萧山区,钱江世纪城民和路481号联合中心A座,近奥体博览中心，地铁站,酒店,经济型,120.255222,30.229776
90351616.0,可艾猫咪,,,18621377629,市心北路,振宁路,,宠物,宠物店,120.26729,30.215749
90370760.0,金鹰汽车服务,,,13024288896,市心北路,宁围镇顺发和美家市心北路1503号,,爱车,维修保养,120.26441,30.22958
90380559.0,誉成门窗,,,15990076928;13738038691,萧山区,飞虹路丰瑞北苑1207号商铺,,家装,门窗,120.249321,30.224059
90401377.0,李记花甲小海鲜,,,15258886723,市心北路,市心北路563号海杰德大厦1楼551-12号,,美食,海鲜,120.268948,30.213987
90428183.0,衢味鱼庄,世纪城店,,15868848582;13429663236,萧山区,飞虹路1137号,飞虹路与盈丰路交叉口,美食,衢州菜,120.248074,30.223879
90441203.0,lili私人订制工作室,,,13454107007,萧山区,利二路136号,,丽人,纹绣,120.243189,30.234813
90459365.0,馋师兄制面,,,18758282976,萧山区,宁围街道民和路481号,,美食,面馆,120.25531,30.229912
90477496.0,五蕴阁,,,15868816092,萧山区,文明路550号,,休闲娱乐,按摩/足疗,120.263909,30.212862
90540453.0,杭州设计师北欧风情之家酒店式公寓,,,,市心北路,市心北路737号佳境天城天合苑,,酒店,经济型,120.26796,30.216839
90921517.0,椭圆机,,,86583681,萧山区,飞虹路1307号,,运动健身,体育场馆,120.251381,30.224483
90932233.0,杭州时光映象普通公寓,,,,萧山区,公园西路与利丰路交叉口北侧世纪晶钻,,酒店,经济型,120.25646,30.22963
90994489.0,车奇士,,,,萧山区,文明路818号,丰瑞南苑南门,爱车,美容洗车,120.253382,30.213235
91005708.0,梦巴黎咖啡会所,佳境天城店,,15157813173;83735715,市心北路,宁围街道振宁路766号,,美食,咖啡厅,120.268447,30.216279
91045839.0,Y-S·Salon潮牌接发机构 ,绿都港汇店,DJ美业潮点造型,15925659000,市心北路,市心北路绿都港汇中心2幢16楼,物美超市斜对面,丽人,美发,120.26805,30.2209
91051490.0,小糖果汽车装潢服务部,,,15068857730,萧山区,文明路818号,,美食,其他美食,120.252819,30.213262
91052153.0,黄焖鸡骨头饭,,,15867181652,萧山区,振宁路941号,,美食,黄焖鸡,120.263917,30.215549
91063041.0,Y·S日系潮牌接发机构,钱江世纪城店,,15700727567,市心北路,皓月路万和国际1楼底商,诺德财富中心对面,丽人,美发,120.256101,30.23314
91608040.0,美妆工作室,,,18657118278,萧山区,振宁路981号,,丽人,纹绣,120.26265,30.215589
91609480.0,Miss R Studio,,,,钱江世纪城,蜀山街道,,美食,甜品,120.244297,30.236368
91624698.0,莫卡乡村,佳丰北苑店,,19967344699,萧山区,飞虹路1103号佳丰北苑,,美食,面包烘焙,120.246939,30.223667
91628230.0,惠多生活超市,,,13175111712,萧山区,飞虹路1261号丰2村丰瑞北苑9-10幢104号,萧山区宁围镇飞虹路1261号丰瑞北苑,购物,超市/便利店,120.250416,30.224765
91631667.0,舒仕婴童馆,,,13429124784,萧山区,萧山文明路591-592号,,亲子,婴儿游泳,120.261767,30.212913
91645736.0,水饺砂锅居,佳丰北苑店,,17767274552,萧山区,宁围街道飞虹路1119-1号,,美食,饺子,120.247502,30.223748
91692457.0,水果超市,,,15067177138,萧山区,宁围街道飞虹路1087-1097号,,美食,水果店,120.247279,30.223553
91902389.0,匠君汽车俱乐部,,,15158000392,萧山区,文明路828-829号,丰瑞南苑南门,爱车,维修保养,120.25217,30.213318
91919900.0,九头王鱼虾汇川菜,钱江世纪城店,,82861799;18258211444,萧山区,民和路469号,,美食,川菜家常菜,120.255795,30.229427
91933686.0,昕昕美容养生工作室,,,15355436809,萧山区,永晖路丰东花苑8栋1902,,丽人,瘦身纤体,120.264973,30.219599
91951189.0,Hey Girl 私人定制美甲美睫半永久,,,18758022350;18368148010,市心北路,市心北路港汇中心2号楼1305A（近振宁路地铁站B出口）,寒舍创客公寓6107,丽人,美甲,120.26818,30.22094
92102566.0,小崔绿烽农业果蔬自产自销店,,,82593930,市心北路,宁围镇振宁路佳镜天城天合苑南门24号嗨宝家政,,美食,生鲜,120.267377,30.21667
92104108.0,杭州利二花苑普通公寓,,,,萧山区,奔竞大道与金鸡路交叉口,,酒店,经济型,120.245224,30.233047
92108664.0,黄焖鸡骨头饭,,,13456929673,市心北路,宁围街道市心北路钱江世纪城飞虹路地铁附近,,美食,黄焖鸡,120.262429,30.23218
92137416.0,蓝山咖啡,钱江世纪城店,,22850029;18062064493,萧山区,宁围街道民和路499号联合中心D座三楼,近钱江世纪城管委会,美食,咖啡厅,120.25479,30.23075
92139207.0,久久鸭脖,,,18758891821,萧山区,宁围街道利丰路696号,,美食,熟食熏酱,120.25492,30.228291
92144901.0,高汤面馆,诺德美食广场店,,,市心北路,宁围街道镇皓月路159号,,美食,快餐简餐,120.255134,30.234122
92218285.0,鲜鱼馆,钱江世纪城店,,13588840745,萧山区,宁围街道丰北村利丰路624号,丰北二苑商铺,美食,粥店,120.253818,30.22778
92218785.0,钱小饭卤肉饭,钱江世纪城店,,18143490935,市心北路,钱江世纪城皓月路159号下沉美食广场,,美食,快餐简餐,120.255639,30.23357
92223012.0,耶瑾年汉堡快餐厅,诺德美食广场店,,18143489291,市心北路,宁围街道镇皓月路159-11诺德财富中心下沉美食广场,,美食,快餐简餐,120.255618,30.233546
92227736.0,优家宝贝,,,18258172979,萧山区,文明路536号,,亲子,婴儿游泳,120.264335,30.213128
92245543.0,谷跳仓煲仔饭,诺德美食广场店,,18267501920,萧山区,皓月路159号,,美食,快餐简餐,120.255706,30.233634
92245590.0,次坞打面,诺德美食广场店,,18257165395,市心北路,皓月路159号,,美食,面馆,120.255729,30.233518
92247222.0,小桑树专业烫染,港汇店,,13136187797,市心北路,市心北路港汇中心1号楼1606B,地铁2号线振宁路B出口,丽人,美发,120.267785,30.220695
92248736.0,兄弟国际,,,15158081019,萧山区,振宁路丰东花苑908号,,丽人,美发,120.264634,30.216122
92279712.0,程记-鲜果时光,,,15957106625,萧山区,宁围街道利丰路629号,萧山区宁围街道利丰路629号,美食,水果店,120.254532,30.228309
92292867.0,乐盈公寓,,,15161100830,萧山区,民和路486号祥腾财富中心1号楼,,酒店,经济型,120.256609,30.230439
92301673.0,水果直销,盈丰路店,,13073616897,萧山区,盈丰路341号,,美食,水果店,120.247952,30.225555
92326276.0,菓拾水果店,,,15267188284,萧山区,宁围街道飞虹路1769号,,美食,水果店,120.246653,30.222999
92330615.0,韩味购,,,13850522362,萧山区,宁围街道飞虹路1209号,丰瑞北苑,美食,韩式小吃,120.2494,30.224211
92352511.0,筑品汇,,,18058751327;86078809,萧山区,民和路513号联合中心C座15楼,,家装,全包装修,120.254268,30.23034
92362850.0,玫可儿光电美肤馆,,,18357031888,萧山区,飞虹路1523号,,丽人,美容/SPA,120.256021,30.225979
92383699.0,花尚秀花艺,,,13777363900,市心北路,皓月路150-2号,,购物,花店,120.255731,30.231949
92412277.0,张亮麻辣烫,利丰路店,,18857783660;13750889585,萧山区,利丰路684号,,美食,麻辣烫,120.255406,30.228919
92413292.0,沙县小吃黄焖鸡米饭,,,18721988881;15355038339,萧山区,利丰路628号,,美食,黄焖鸡,120.253845,30.22793
92415195.0,韩式炸鸡&鸡排&汉堡,,,13735891329,萧山区,钱江世纪城飞虹路1233号,,美食,西式快餐,120.249972,30.224347
92423361.0,阿正小龙虾,,,18668210272,萧山区,飞虹路1059,杭州市萧山区飞虹路1059,美食,小龙虾,120.246214,30.22344
92460744.0,四川麻辣烫,飞虹路店,,15167173046,萧山区,飞虹路1119号,,美食,麻辣烫,120.247506,30.223739
92485131.0,国际博览中心北辰大酒店,,,82908866,奥体博览中心,钱江世纪城奔竞大道353号,,酒店,豪华型,120.24113,30.229739
92509349.0,LAWSON罗森,民和店,,4008206390,萧山区,民和路511号,,购物,超市/便利店,120.254517,30.229971
92513548.0,欣语轩水果,,,15868407288,萧山区,飞虹路1785号,,购物,花店,120.261288,30.228516
92514342.0,曹盛记馄饨店,飞虹路店,,15314630606,萧山区,飞虹路1575号,,美食,馄饨,120.256931,30.226255
92520096.0,金华砂锅·黄焖鸡米饭,,,13735491459,萧山区,宁围街道丰北二苑利丰路694号,,美食,黄焖鸡,120.255751,30.228503
92520426.0,项银花简餐烧卖,,,18668189691,市心北路,宁围街道皓月路159号—8,,美食,馄饨|抄手|扁食,120.255241,30.233503
92525064.0,盈隆酒家,,,82878798,萧山区,金鸡路1988号,宁围街道丰北三苑西门,美食,浙菜,120.252502,30.22892
92556118.0,汉霸汉堡,市心北路店,,16657110539,市心北路,宁围街道市心北路551-6号,,美食,西式快餐,120.268868,30.213849
92577423.0,英姿饭店,,,17746827675,萧山区,盈丰路296号,,美食,苏浙菜,120.24899,30.22426
92577563.0,土宝食材铺,,,13634161851,萧山区,宁围镇春和钱塘小区飞虹路1579号,,美食,生鲜,120.252398,30.2285
92595687.0,名启酒店,,,82878282,市心北路,民和路496号钱江世纪城,近飞虹路地铁口,酒店,经济型,120.256135,30.23092
92633634.0,杭州幸福居公寓分店,,,,萧山区,宁围街道,,酒店,经济型,120.26576,30.215408
92657627.0,国际博览中心北辰大酒店花园烧烤,,,,北干,钱江世纪城奔竞大道353号,,美食,苏浙菜,120.253419,30.213054
92658312.0,杭州国际博览中心北辰大酒店·印象西餐厅,,,82908888,钱江世纪城,奔竞大道353号,,美食,自助餐,120.24116,30.229685
92669300.0,刘鉥面馆,,,18248497076,萧山区,振宁路1475号,,美食,面馆,120.251459,30.21463
92734700.0,张魁东北水饺,,,15860049796,萧山区,宁围街道利丰路658号,,美食,饺子,120.254722,30.228225
92736765.0,萧悦时尚餐厅,,,87251781,市心北路,皓月路172号,万和国际底商,美食,浙菜,120.25631,30.232961
92740291.0,中医美容养生馆,宁围店,,13777065190,市心北路,振宁路770-772号,,休闲娱乐,按摩/足疗,120.2683,30.21576
92751785.0,永鲜面馆,,,18867127458,市心北路,宁围镇文明路630号,,美食,面馆,120.26011,30.21295
92753139.0,御味轩,,,13170141309,萧山区,利丰路669号,,美食,快餐简餐,120.250332,30.23117
92753840.0,陕西面馆,,,18691721282,萧山区,利丰路636号丰北二苑小区门口,,美食,面馆,120.254327,30.227906
92754134.0,里面NOODLES面馆,,,17857139289,萧山区,利丰路626号,,美食,面馆,120.25383,30.227922
92808343.0,锡纸花甲米线·鲜榨果汁·鸡排,,,15867181652,萧山区,振宁路939、941号,,美食,炸鸡炸串,120.26403,30.21569
92809215.0,my创意气球派对布置,,,13735213857,萧山区,利丰路719号,,亲子,宝宝派对,120.256905,30.229903
92810556.0,麻小麻·麻辣香锅,,,13291429617,市心北路,市心北路563号,,美食,干锅/香锅,120.269084,30.213945
92833069.0,雪蒂斯,,,15824408563,萧山区,利丰路665号,,美食,茶饮果汁,120.254653,30.228691
92842746.0,诚诚川菜,,,15131117683,萧山区,石家庄市长安区工人街9号,,美食,川菜馆,120.246956,30.223741
92876216.0,嵊州年糕的故事,,,13567503292,萧山区,利丰路688号,,美食,面馆,120.255538,30.22849
92881399.0,便捷新农都,,,13336149720,萧山区,永辉路109号,,购物,超市/便利店,120.265137,30.217054
92886188.0,米粒集合,钱江世纪城店,,13906718883,钱江世纪城,宁围街道皓月路159-2号诺德财富中心B1层,,美食,浙菜,120.25518,30.23325
92892695.0,中健银座,,,18058739339,萧山区,扬帆路合丰新业大厦2楼,,运动健身,健身房,120.243185,30.220598
92895553.0,梦凡生活超市,,,18458442988,钱江世纪城,宁围街道永晖路109号丰东花苑便捷新农都内,,购物,超市/便利店,120.265159,30.216911
92939222.0,康明眼镜,,,82650701,萧山区,振宁路979号,,购物,眼镜店,120.263075,30.21613
92947832.0,品尚发型工作室,,,15669969068;15168262809,萧山区,丰北三苑利丰路621号,,丽人,美发,120.2537,30.22838
92951109.0,茱莉鲜花生活馆,,,18969941682,萧山区,宁围镇丰北一苑利丰路742号,,购物,花店,120.258005,30.229478
92964609.0,汉音古筝学苑·专业古筝培训,港汇店,,83695069,市心北路,市心北路895号港汇中心一层,地铁2号线振宁路站B出口50米,教育培训,音乐,120.26796,30.22075
92966960.0,明记土菜馆,,,13484033223,萧山区,利丰路634号,,美食,农家菜,120.254138,30.227928
92981581.0,飞飞面馆,,,15925658887,萧山区,宁围街道丰北村利丰路740号,,美食,面馆,120.25797,30.229466
93053817.0,一菜一格,,,18676111833,市心北路,皓月路159-1号,,美食,湘菜,120.255865,30.23262
93075127.0,中国兰州拉面,,,18758032053,萧山区,宁围街道盈丰路425号,,美食,面馆,120.247543,30.228296
93084341.0,包笼天下,,,15167559484,萧山区,利丰路622号,,美食,茶饮果汁,120.253834,30.227817
93092210.0,农夫山泉,,,18868860039,萧山区,宁围街道振宁路1513号,,生活服务,送水站,120.25053,30.21457
93112710.0,湖州佬龙虾羊排,,,,市心北路,宁围镇振宁路813号,,美食,融合烤肉,120.26741,30.21552
93112727.0,大嘴巴湘菜馆,奥体店,,82153067,萧山区,利丰路690号,,美食,湘菜,120.25574,30.22846
93127531.0,中健银座,,,18058739339,萧山区,盈丰路融创时代奥城内,,运动健身,健身房,120.242355,30.229551
93131444.0,丰苑小竹养生会所,,,18072782669,钱江世纪城,盈丰路331号,,休闲娱乐,按摩/足疗,120.248483,30.225709
93175184.0,沙县小吃,,,15088769032,萧山区,宁围街道丰北村利丰路667号,,美食,快餐简餐,120.25469,30.22873
93206192.0,杭州华联,,,13777488628,萧山区,宁围镇利丰路728号丰北1苑,,购物,超市/便利店,120.257469,30.229215
93215727.0,浩丽烟酒,萧山总代理,,13750826523,萧山区,宁围镇文明路588号,,购物,烟酒茶叶,120.262039,30.212882
93227524.0,泰韵饭店,,,13221023696,市心北路,市心北路563号,,美食,川菜家常菜,120.269085,30.213946
93227845.0,村上榕树冒菜·香锅,,,13456899596,萧山区,飞虹路1101号,佳丰北苑底商,美食,干锅/香锅,120.246833,30.223659
93230868.0,泉泉科技养身,,,18657185658,市心北路,民和路600号大象国际中心A座2702室,,生活服务,公司企业,120.252923,30.233737
93231787.0,丰苑小吃,,,13626718125,萧山区,利丰路654号,,美食,快餐简餐,120.254678,30.228208
93246193.0,巴比馒头,利一家园店,,15000609416,萧山区,利丰路447号利一家园东南门西30米,,美食,包子,120.24557,30.226919
93253638.0,台湾饭团,,,18158173879,萧山区,利丰路650号,,美食,小吃快餐,120.254577,30.228132
93289141.0,食分之七,市心北路店,,15088776602,市心北路,宁围镇心北路563号海杰德大厦551-8,萧山区宁围街道市心北路563号551-8,美食,快餐简餐,120.268772,30.213868
93319036.0,中国航天青少年科普展,杭州站,,,萧山区,奔竞大道353号,国际博览中心3号门进入场馆三楼D馆,景点,展馆展览,120.241272,30.22819
93325832.0,老姑水饺东北特色菜,市心北路店,,18069842132,市心北路,市心北路551-14,,美食,饺子,120.26929,30.214391
93404968.0,嘉年健康体检中心,,,83530508;15381118151,钱江世纪城,泰宏巷50号三宏国际大厦西门（泰宏巷50号）,泰宏巷50号,医疗健康,体检中心,120.253768,30.230985
93409444.0,久德小吃,,,15925672878,萧山区,振宁路930号,,美食,包子,120.264386,30.216122
93412003.0,百顺健身游泳,,,15268501652,三墩镇,宁围街道丰东村永晖路钱江世纪新城丰东高层安置小区底商,,运动健身,健身房,120.264028,30.217108
93425765.0,品味生活吧,,,13675822529,萧山区,飞虹路1721号,滨江金色江南小区,美食,饮品店,120.25947,30.22726
93455524.0,锅先森,,,13336006670,萧山区,利丰路738号,,美食,融合烤肉,120.257866,30.229485
93503560.0,生鲜超市菜场,,,15605889609,萧山区,利丰路463号,,美食,生鲜,120.24578,30.226657
93507712.0,洪阳便利店,,,18257189878,市心北路,宁围镇钱江世纪城皓月路159-6诺德财富美食广场,,购物,超市/便利店,120.255692,30.233706
93509119.0,老婆大人量贩零食连锁,利丰路店,,4001112757,萧山区,利丰路丰北二苑底商,,美食,零食,120.254684,30.228252
93509233.0,春洁面馆,,,13616549767,萧山区,宁围街道利丰路620号,,美食,面馆,120.253793,30.227842
93513390.0,蓝庭足浴,,,82130987,钱江世纪城,利丰路744号,,休闲娱乐,按摩/足疗,120.257397,30.229135
93516260.0,共享餐厅,,,17306716905,市心北路,市心北路551-16,,美食,浙菜,120.268135,30.213888
93530764.0,翠姐姐面馆小吃,,,18258282622,萧山区,民和路485号,,美食,面馆,120.255781,30.229907
93553096.0,杭州钱江世纪城尚客之家酒店式公寓,,,,萧山区,萧山国际机场高架口世纪晶钻,,酒店,经济型,120.256485,30.22962
93555065.0,巴比馒头,利丰路店,,15869117990,萧山区,利丰路640号,,美食,包子,120.254522,30.227936
93559082.0,安泊尔牛肉面,,,13718736139,市心北路,宁围街道市心北路563号551-4,,美食,面馆,120.269003,30.21375
93580968.0,桃子美妆馆,,,18358188892,钱江世纪城,利丰路利一家园11栋2单元702,靠近博奥城,丽人,美甲,120.246918,30.227777
93602116.0,手工米粉,,,18105985518,萧山区,振宁路858号,,美食,米粉/米线,120.265937,30.215984
93656225.0,有家小炸,,,15869125058,萧山区,利丰路611号,,美食,炸鸡炸串,120.253605,30.228256
93657261.0,沈氏牛肉汤,,,15356103030,萧山区,利丰路631号,丰北三苑南门旁,美食,快餐简餐,120.253981,30.228454
93668803.0,七月皮肤管理中心,,,,市心北路,市心北路777号顺发和美家,,丽人,皮肤管理,120.265531,30.228693
93669282.0,吉祥馄饨,诺德财富中心店,,18858111162,市心北路,宁围街道皓月路159-9号,,美食,馄饨|抄手|扁食,120.255446,30.23352
93742418.0,包客里,,,18513835210,萧山区,宁围街道利丰路637号,,美食,包子,120.253744,30.228587
93743224.0,CocoMart,,,13626716205,钱江世纪城,利丰路674号,,购物,超市/便利店,120.255204,30.228339
93767213.0,全元素形象管理时尚会所,,,15382390117,钱江世纪城,飞虹路1501-1503号,,丽人,SPA美体,120.255339,30.225826
93784150.0,客易图文广告,,,82138116;15381144551,市心北路,大象国际一楼,大象国际一楼西商铺,生活服务,图文快印,120.253212,30.234213
93785803.0,湖州新智谷贸易有限公司,,,,市心北路,民和路600号大象国际中心B座21楼,,生活服务,公司企业,120.253119,30.234239
93792847.0,猛男的炒饭,钱江新城店,,15868123688,萧山区,宁围街道民和路491-5-1,,美食,快餐简餐,120.255247,30.230055
93929192.0,馋掉牙花甲锅仔饭,市心北路店,,18758118761,市心北路,宁围镇市心北路563号海杰德大厦,,美食,快餐简餐,120.268946,30.213985
93951195.0,粥饭世家,萧山店,,18158404768,市心北路,萧山市心北路海杰德大厦551-34号,,美食,粥店,120.268943,30.213958
93968814.0,拿督拉茶,,,15788681457,萧山区,宁围镇振宁路922号丰东花苑,,美食,茶饮果汁,120.264296,30.216228
93979859.0,杭州MrZ的家普通公寓,,,,市心北路,杭州萧山区利一家园5栋503。,奥体博览城,酒店,经济型,120.246174,30.227905
93990665.0,钱江世纪城地铁口花园温馨家园,,,4000660190,,佳境街17号,,其它,榛果民宿,120.26748,30.21709
93993663.0,市心药店,,,82691700;82020520,萧山区,宁围镇钱江世纪城联合中心民和路509号,佰佳旺隔壁,医疗健康,药店,120.254967,30.230782
93996213.0,宠·初心,,,82130129,萧山区,飞虹路1725号,滨江金色江南售楼处,宠物,宠物店,120.25953,30.227266
94012810.0,高老莊,奥体博览中心店,,82231717;13336011717,萧山区,钱江世纪城民和路491一6号,,美食,浙菜,120.254889,30.230053
94014814.0,钱塘超市,,,13067897226,市心北路,盈丰农副产品综合市场,萧山区盈丰农副产品综合市场,美食,生鲜,120.26051,30.235329
94033777.0,绝味鸭脖,利丰路店,,13732558737,萧山区,宁围街道丰北村利丰路632号,,美食,卤味鸭脖,120.256855,30.229856
94065678.0,莱客菲特健身中心,,,82122296,市心北路,港汇中心三楼,品惠超市（市心北路店）,运动健身,健身房,120.26796,30.22075
94264141.0,海味馆排档,联合中心店,,83822188,萧山区,宁围街道泰宏巷26号,,美食,苏浙菜,120.254526,30.229583
94266116.0,东方君悦健身中心,,,15068743873,市心北路,民和路600号,大象国际中心2楼,运动健身,健身房,120.253014,30.234064
94278763.0,俏颜格品牌面膜,,,13776585722,市心北路,盈丰路大象国际A16楼,2号地铁口,丽人,化妆品,120.253174,30.234179
94295607.0,龙门花甲,国泰大厦店,,17630551024,市心北路,利丰路734,,美食,海鲜,120.257846,30.229375
94299494.0,兰溪手工面,,,13665852458,萧山区,民和路,,美食,面馆,120.255009,30.230483
94302129.0,浅甜餐厅,,,15700127498;13456818127,市心北路,宁围街道市心北路563号551-32,,美食,甜品,120.268956,30.213963
94399422.0,维也纳3好酒店,杭州萧山钱江世纪城店,,82578899;18958160205,萧山区,民和路467号国泰科技大厦,,酒店,高档型,120.256009,30.22947
94723632.0,回音咖啡·下午茶,,,15267096725,市心北路,宁围街道市心北路563号551-22,,美食,咖啡厅,120.268959,30.213927
95024142.0,尚流餐饮,市心北路店,,57178899;57173888,市心北路,萧山市心北路891号绿都港汇中心GEC南商业大堂二楼,,美食,浙菜,120.26796,30.22075
95029267.0,中石化BP澳托猫汽车服务中心,市心北路店,,18370341567,市心北路,市心北路与振宁路交叉口中石化BP加油站内,,爱车,维修保养,120.269158,30.214887
95044470.0,正新鸡排&张阿姨奶茶,,,13967122882,萧山区,盈丰路409―411号,,美食,炸鸡炸串,120.247932,30.228577
95048399.0,佳境送水站,,,15356690519,萧山区,宁围街道振宁路835号,,生活服务,送水站,120.266708,30.215591
95063107.0,华联,国泰科技大厦店,,13758216548;18258201697,萧山区,宁围街道利丰路677、679号,,购物,超市/便利店,120.255194,30.228949
95067483.0,潮车会,,,13858023303,市心北路,利丰路746-748号,万和国际,爱车,美容洗车,120.258059,30.229534
95106102.0,河南烩面,利丰路店,,13777554083,萧山区,利丰路629号,,美食,小吃快餐,120.253838,30.228216
95201979.0,次坞打面,,,13221419063,萧山区,利丰路642号,,美食,面馆,120.254375,30.228101
95240824.0,把愚便当,萧山店,,13732257814,市心北路,钱江世纪城皓月路159-13号诺德财富中心美食广场B1层,,美食,快餐简餐,120.255137,30.233516
95242539.0,卜菲力牛排杯,,,13968085954,市心北路,宁围街道皓月路159,,美食,牛排,120.255865,30.23262
95250101.0,便捷新农都生鲜便利店,,,15925689251,萧山区,宁围镇文明路529号,,美食,生鲜,120.264713,30.212875
95266339.0,皖北小哥淮南牛肉汤,,,15336888456,市心北路,宁围街道皓月路159号-20,,美食,快餐简餐,120.2554,30.23326
95307301.0,杭州钱江世纪城奥体滨江萧山机场套房、ins清新风近地铁,,,4000660190,萧山区,杭州萧山区钱江世纪城,,其它,榛果民宿,120.240368,30.223671
95367755.0,奇思机器人俱乐部·乐高编程教育,,,4000303096-29539,市心北路,市心北路900号农业大厦1幢1楼,2号线振宁路地铁A口,教育培训,少儿编程,120.269247,30.220413
95414262.0,停车场,,,,萧山区,振宁路920号附近,,爱车,停车场,120.26458,30.2157
95425940.0,停车场,,,,市心北路,飞虹路1900号附近,,爱车,停车场,120.263329,30.229944
95472538.0,利一家园停车场,,,,萧山区,利丰路北50米,,爱车,停车场,120.245895,30.22687
95549231.0,幸福时代培训辅导中心停车场,,,,市心北路,文明路468号附近,,爱车,停车场,120.268539,30.213068
95552188.0,佳丰北苑停车场,,,,钱江世纪城,盈丰路与飞虹路交叉口西北200米,,爱车,停车场,120.248024,30.224619
95602299.0,绿植租赁绿见园林,,,83513200,市心北路,杭州钱江世纪城民和路浙江民营企业发展大厦A座1003,飞虹路地铁站,生活服务,更多生活服务,120.25628,30.230947
95606426.0,金昌·春和钱塘停车场,,,,萧山区,民和路与飞虹路交叉口西150米,,爱车,停车场,120.25691,30.226063
95626696.0,田埂头绿色餐厅,万和国际店,,15067199693,市心北路,皓月路170号,,美食,家常菜,120.256111,30.232984
95643675.0,停车场,,,,钱江世纪城,书音路与奔竞大道交叉口东南150米,,爱车,停车场,120.244632,30.229975
95735863.0,滨江·金色江南停车场,,,,萧山区,永晖路与飞虹路交叉口西南150米,,爱车,停车场,120.260413,30.228027
95765199.0,P自行车库,,,,市心北路,振宁路786-6号附近,,爱车,停车场,120.266891,30.216616
95775754.0,佳境天城天合苑停车场,,,,市心北路,市心北路737号,,爱车,停车场,120.267851,30.216648
95786474.0,停车场,,,,市心北路,利丰路与市心北路交叉口东北100米,,爱车,停车场,120.260869,30.233032
95787694.0,停车场,,,,萧山区,金鸡路与飞虹路交叉口东北200米,,爱车,停车场,120.255606,30.225691
95874260.0,嘟嘟的家,,,13067968730,萧山区,宁围街道飞虹路佳丰北苑1幢1101室3号,,宠物,宠物店,120.246319,30.224532
95882290.0,中健银座健身工作室,,,15956864168,市心北路,飞虹路地铁站旁,,运动健身,健身房,120.263963,30.229898
95890364.0,十月造型,,,,萧山区,振宁路与永晖路交叉口西100米,,丽人,美发,120.26451,30.2157
95904300.0,佳境天城游泳健身会所,,,18501758391,市心北路,市心北路佳境社区文化广场内,,运动健身,健身房,120.268771,30.216073
95947756.0,甘茶度,大象国际店,,18069428865;15968899432,市心北路,民和路600号一楼,,美食,茶饮果汁,120.252845,30.233964
95956240.0,小哥快点炸鸡汉堡凉皮,,,17746831506,萧山区,宁围街道丰东村振宁路925号,,美食,快餐简餐,120.264343,30.215602
95968217.0,鲜哒果,,,15068739181,萧山区,宁围街道文明路562号一楼,,美食,水果店,120.263426,30.212863
95972751.0,歆乐艺坊,,,17357118078,市心北路,顺发和美家,,教育培训,音乐,120.264066,30.228797
96015024.0,市心北路健身房,,,17505815161,市心北路,市心北路,,运动健身,健身房,120.26836,30.22483
96035253.0,交换空间装饰杭州公司,,,13913511509,萧山区,民和路476号,,家装,半包装修,120.256669,30.229949
96085031.0,巴客的饭·滋补养生火锅鸡,,,15868464600,萧山区,民和路454号,利丰路与民和路交叉口,美食,本地鸡窝火锅,120.257156,30.229278
96092813.0,仟家邻大食堂,振宁店,,82308097,市心北路,振宁路799号,,美食,快餐简餐,120.268332,30.215556
96106271.0,江湖纸包鱼,,,15868411086,萧山区,利丰路丰北一苑724号,,美食,川菜馆,120.257396,30.229182
96106759.0,禾悦足浴,,,83508255,萧山区,利丰路中通快递旁,,休闲娱乐,按摩/足疗,120.257812,30.229356
96109134.0,路人甲网咖,,,13666635264,萧山区,振宁路930号,,美食,面包烘焙,120.263832,30.216145
96119429.0,绿烽农业果蔬自产自销点,,,13770548018,市心北路,振宁路佳境街21号,,美食,水果店,120.267353,30.216744
96134799.0,粤港烧烤龙虾煲仔饭,,,18167122786,萧山区,利丰路615号,丰北三苑,美食,快餐简餐,120.25355,30.22833
96139553.0,网客粗粮饭·烤鱼,,,18967100333;83692777,萧山区,利丰路722号钱江世纪城管委会旁200米,,美食,烤鱼,120.25714,30.229275
96168184.0,港式铁板炒饭,,,,市心北路,皓月路159号-15号,,美食,快餐简餐,120.255941,30.232597
96168802.0,哈哈镜,,,13336143563,萧山区,利丰路605号,,美食,熟食熏酱,120.253014,30.228034
96181711.0,迪贝口腔,,,83736078,萧山区,飞虹路春和钱塘1491号,美哉美城北大门对面,医疗健康,齿科,120.255202,30.225519
96188802.0,星乐餐厅,,,15968167304,市心北路,民和路博地中心内,,美食,特色菜,120.251481,30.23533
96228474.0,吉莱仕·炸鸡汉堡,,,15617053077;17357126355,萧山区,民和路联合中心南区B栋泰宏巷24号,,美食,西式快餐,120.254635,30.229651
96234133.0,杭州惠嘉小栖民宿分店,,,,萧山区,滨江金色江南,,酒店,经济型,120.259476,30.228102
96234558.0,阿许面馆,,,13879336030,萧山区,飞虹路,,美食,面馆,120.246956,30.223741
96258751.0,瑜伽游泳馆,,,,市心北路,市心北路781号,,运动健身,游泳馆,120.26804,30.217358
96292452.0,老金老汤面馆,,,13735850343,萧山区,利丰路734号,,美食,面馆,120.257656,30.229542
96293880.0,沙县小吃,丰北一苑店,,18042317056,萧山区,利丰路726号,,美食,快餐简餐,120.25746,30.22926
96296165.0,何八爷卤鸭饭·简餐,,,18167101811,市心北路,利丰路485号,,美食,快餐简餐,120.24695,30.227088
96296780.0,优菓,,,15988597822,市心北路,利丰路469-1号,,美食,水果店,120.24649,30.226871
96300156.0,万品天街,,,18367153970,市心北路,市心北路西侧佳境天城172号1楼,,购物,更多购物场所,120.268008,30.216628
96329117.0,嘟逸网咖,,,13326137678,萧山区,利丰路607号,,休闲娱乐,网吧/电竞,120.253495,30.228296
96332508.0,青檬恋茶,,,18058814261,市心北路,市心北路895号,,美食,茶饮果汁,120.269036,30.218142
96351092.0,露岭果园,,,13557852558,市心北路,皓月路159号,,美食,水果店,120.255459,30.233451
96353049.0,东北水饺·缙云烧饼,,,,萧山区,宁围街道振宁路926号-1,,美食,饺子,120.264175,30.216154
96354258.0,图文广告,,,18058409212;15396521737,钱江世纪城,盈丰路333号,佳丰北苑东门,生活服务,图文快印,120.248007,30.22529
96362424.0,三餐福,,,,市心北路,民和路600号G层,,美食,快餐简餐,120.253105,30.234124
96364128.0,克丽缇娜,佳境天城店,,82879515,市心北路,振宁路768号,,丽人,SPA美体,120.268253,30.216043
96371788.0,利伊利发店,,,82162369,市心北路,利丰路471-1号,,丽人,美发,120.25882,30.23027
96395641.0,西摩果园,,,15968158414,萧山区,盈丰路佳丰北苑东门,,美食,水果店,120.247877,30.225322
96396045.0,中国化隆牛肉面,,,,萧山区,利丰路691号,,美食,面馆,120.255586,30.228671
96417940.0,楊國福麻辣烫,钱江世纪城店,,13858009367,市心北路,皓月路159号-24,,美食,麻辣烫,120.255636,30.233568
96431762.0,便捷新农都,,,15715772414,萧山区,利丰路666号丰北二苑底商,,美食,水果生鲜,120.255109,30.228248
96436192.0,家乡湘菜馆,,,17605816988,萧山区,宁围街道振宁路866号,,美食,川菜家常菜,120.265836,30.215999
96440975.0,一醉食府,利丰路店,,13858133140,萧山区,利丰路623号,,美食,川菜家常菜,120.25374,30.22839
96466998.0,淮南牛肉汤,,,17816862806,萧山区,泰宏巷1-1,,美食,面馆,120.25412,30.23
96499244.0,MYFIT健身工作室,诺德店,,82259750,市心北路,宁围街道皓月路159号诺德财富中心A幢2楼201室,,运动健身,私教工作室,120.255318,30.233656
96512384.0,有味少年,钱江世纪城店,,4007123123,市心北路,宁围街道皓月路159-27号,,美食,快餐简餐,120.255639,30.23357
96515473.0,U+YOGA CENTER,钱江世纪城店,,18667125820;15057127067,萧山区,民和路与利丰路交叉口祥腾财富中心2号楼20楼,,丽人,瑜伽,120.256493,30.23044
96522027.0,佰佳旺,诺德财富中心店,,,市心北路,皓月路159号诺德财富中心,,美食,快餐简餐,120.2558,30.233577
96523399.0,简影工作室,,,15990155169,萧山区,飞虹路1135号,,结婚,婚礼跟拍,120.248051,30.223906
96531545.0,爱口福东北特色水饺,钱江世纪城店,,87751657,市心北路,万和国际,,美食,饺子,120.255734,30.232451
96532576.0,啜茗hitea,,,18356876988,萧山区,泰宏巷24-1号,,美食,饮品店,120.254656,30.229258
96537705.0,佳丰果业,,,17858639041,萧山区,宁围街道盈丰路319-2号,,美食,水果店,120.248126,30.224533
96540627.0,fe studio摄影,,,4000908610-139245,市心北路,皓月路159号诺德中心B座11楼,,结婚,个性写真,120.254949,30.233938
96541690.0,爱口福,,,13836427877,市心北路,振宁路827号,,美食,饺子,120.266602,30.215895
96580823.0,阿姨很芒,萧山利一家园店,,15394280887,萧山区,利丰路491号,,美食,茶饮果汁,120.24741,30.227077
96584231.0,布兰妮·汉堡,,,17326065195,萧山区,宁围街道振宁路927号,,美食,西式快餐,120.263659,30.215954
96588352.0,江子钢管舞培训学校,,,18958191733,萧山区,祥腾财富中心2幢1305室,,丽人,舞蹈,120.256618,30.230449
96592893.0,禅亿美容美发生活馆,,,82580137,萧山区,振宁路931-933号,,丽人,美发,120.264083,30.215625
96647957.0,"设计师作品:50平米地铁二号线振宁路出口,佳境天城小区内,独立卫浴,装修精美。",,,4000660190,市心北路,市心北路737号,,其它,榛果民宿,120.2675,30.21722
96655119.0,设计师作品:北欧风格的杭州市振宁路地铁口佳境天城的精致双大床房公寓（近钱江世纪城、奥体中心201）可,,,4000660190,市心北路,市心北路737号,,其它,榛果民宿,120.267567,30.216921
96676394.0,花语啡,,,13938622932,市心北路,利丰路475号,利丰路与盈丰路交叉口西行70米路北,美食,西餐,120.24706,30.22713
96677797.0,晓莲民宿分店,,,,钱江世纪城,利二花苑,,酒店,经济型,120.24441,30.235134
96686889.0,怡陆客便利店,,,13605701796,市心北路,心北路865号怡陆客,,购物,超市/便利店,120.268166,30.219746
96687435.0,杭州钱江世纪城希尔顿欢朋酒店,,,82601818,市心北路,皓月路186号诺德财富中心B座,,酒店,高档型,120.255141,30.233771
96699794.0,银座空中瑜伽拳击俱乐部,,,,萧山区,民和路与飞虹路交叉口西北150米,,运动健身,体育场馆,120.257598,30.227219
96718759.0,有家粥铺,,,15268634963,市心北路,宁围街道市心北路737号104室,,美食,粥店,120.268197,30.216739
96734031.0,土冒,,,15067163239,市心北路,佳境街,,购物,超市/便利店,120.26748,30.21709
96736220.0,水煮山城重庆老火锅,,,82311236,市心北路,皓月路166-168号,万和国际一层,美食,重庆火锅,120.256302,30.232953
96861715.0,世纪城中心幼儿园,,,,萧山区,杨帆路与永晖路交汇处西北角,,教育培训,幼儿园,120.264024,30.226063
96896741.0,崇文实验小学,,,,萧山区,振宁路,,教育培训,小学,120.250244,30.214916
97083461.0,花棘花艺,,,17682339800,萧山区,民和路453号,维也纳3好酒店对面,结婚,工作室,120.256211,30.228475
97100623.0,杭州港焙蛋糕西点烘焙咖啡奶茶翻糖裱花甜品调酒培训学校,,,82179792;17764520185,市心北路,皓月路诺德财富中心1幢1302室,,教育培训,餐饮酒店从业,120.255234,30.233561
97104693.0,绿城教育奇妙园国际早教,春和钱塘中心,,18072743822,萧山区,民和路419-423号,,教育培训,综合早教,120.256023,30.229459
97110820.0,飞鱼短租公寓,,,15067195822,市心北路,市心北路1531号,,酒店,民宿,120.263645,30.230039
97176228.0,游泳天地,,,15557065103,市心北路,市心北路779号,,运动健身,健身房,120.26776,30.217483
97193189.0,壹味花甲,,,18990372552,市心北路,市心北路,,美食,海鲜,120.26836,30.22483
97223775.0,Dreamonly派对策划定制,,,15157169314,萧山区,民和路481号,联合中心C座,休闲娱乐,轰趴馆,120.254211,30.230488
97240400.0,云滕过桥米线,,,13646855066,萧山区,飞虹路1059-1061号,,美食,米粉/米线,120.246116,30.223632
97242470.0,浮力森林,钱江世纪城店,,,市心北路,利丰路491-1号,利丰路与盈丰路交叉口,美食,面包烘焙,120.247506,30.227219
97281040.0,鱼你相约,,,13777377033,萧山区,宁围街道文明路817号,,美食,苏浙菜,120.25285,30.213107
97285181.0,任爸陈妈面馆,,,15715810021,市心北路,市心北路737号110室,,美食,面馆,120.268171,30.21687
97302411.0,康缇雅美容,,,,萧山区,飞虹路1717,,丽人,SPA美体,120.2593,30.227039
97303391.0,品慧超市,,,,市心北路,市心北路853号,,购物,超市/便利店,120.2682,30.22087
97323567.0,蟹园骨仙捞,,,83737005,萧山区,宁围街道民和路467号维也纳3好酒店201-1室,,美食,火锅,120.2558,30.22934
97325542.0,zj美甲美睫,,,,萧山区,振宁路,,丽人,美甲,120.26489,30.21569
97329315.0,爱玩爱游亲子成长中心,,,13958050161,钱江世纪城,宁围镇利一家园底商7-3,靠近博奥路,亲子,婴儿游泳,120.244392,30.227242
97338902.0,mq烘培,,,15314672813,萧山区,丰东花苑7幢1单元302,,美食,面包烘焙,120.264418,30.217456
97362541.0,卡博尼洗衣,文明路店,,13867117305,萧山区,宁围街道顺丰家园文明路606号,,生活服务,洗衣店,120.261352,30.212854
97367693.0,网鱼网咖,钱江世纪城店,,82133880,萧山区,浙江杭州钱江世纪城宁围街道民和路联合中心A座2楼202室,,休闲娱乐,网吧/电竞,120.255308,30.230006
97368274.0,益臻堂美容中医养生美容馆,宁围店,,15961754408,市心北路,宁围街道振宁路776号,,丽人,SPA美体,120.268211,30.216076
97370842.0,首席利伊造型,,,82162369,萧山区,利丰路471号,,丽人,美发,120.246378,30.226951
97370867.0,碧爱尚健康养生馆,,,,萧山区,宁围街道文明路624号,,休闲娱乐,按摩/足疗,120.243481,30.213551
97378990.0,低卡实验室,,,18967001832,市心北路,市心北路,,美食,快餐简餐,120.268528,30.216665
97381786.0,贝啦小宠之家,,,,萧山区,宁围街道飞虹路1497号,,宠物,宠物店,120.255277,30.225661
97400436.0,星绿康母婴用品b生活馆,,,15695885153,市心北路,宁围街道二桥村758号,,亲子,孕婴用品,120.26021,30.234341
97439908.0,缅泰足道,,,82692225,钱江世纪城,民和路联合中心D座2-3楼,,休闲娱乐,按摩/足疗,120.255066,30.230667
97444899.0,遇见奶牛,钱江世纪城店,,13777467019,萧山区,飞虹路1057号佳丰北苑,,美食,茶饮果汁,120.246095,30.223619
97452730.0,悠百佳量贩零食,盈丰路店,,18969006744,萧山区,宁围街道盈丰路433号,,购物,超市/便利店,120.248843,30.222313
97466208.0,丰瑞水果,盈丰路店,,18757551726,萧山区,宁围街道盈丰路316号,,美食,水果店,120.248888,30.224666
97475063.0,爱尚造型,,,15268051258,萧山区,萧山区联合中心1002室,,丽人,美发,120.25554,30.228392
97479433.0,趁年轻奋斗餐厅,,,13357113883,市心北路,市心北路563号551-24,,美食,苏浙菜,120.26895,30.213908
97482655.0,一峰面馆,,,13967193206,萧山区,盈丰路407号,盈丰路与利丰路交叉口,美食,面馆,120.247302,30.227515
97506863.0,小平超市,,,13588227548,市心北路,心北路563号海结德大厦1楼,,购物,超市/便利店,120.268997,30.21398
97520099.0,美住辰思酒店,国际博览中心店,,82133395,萧山区,宁围街道振宁路896号,距振宁路地铁站D出口500米,酒店,经济型,120.264824,30.216136
97528230.0,中健银座宝盛世纪健身,,,15968886706,市心北路,民和路777号,,运动健身,健身房,120.252258,30.234836
97535049.0,喜鹊棋牌,,,15397052997,萧山区,盈丰路409号二楼（钱江世纪城利一家园）,,休闲娱乐,棋牌室,120.24755,30.22786
97546955.0,tita婚纱摄影,,,18258226670,市心北路,市心北路102号,,结婚,工作室,120.24975,30.223975
97553715.0,零健身游泳中心,,,13372540850,市心北路,市心北路顺发和美家小区内,,运动健身,游泳馆,120.264124,30.228618
97669321.0,星巴克,萧山大象国际中心店,STARBUCKS COFFEE,86775835,市心北路,宁围镇民和路600号大象国际中心,,美食,咖啡厅,120.253304,30.233771
97671241.0,喜士多,,,,市心北路,民和路600号,,购物,超市/便利店,120.252875,30.23389
97704983.0,金屋藏喵猫舍,,,13588026586,萧山区,滨江金色江南,,宠物,购宠,120.260045,30.228287
97727012.0,牛肉拉面,,,13575742003,萧山区,飞虹路1299号,,美食,面馆,120.25153,30.22471
97730769.0,老鸭粉丝汤,,,13588275040,萧山区,利丰路669号,,美食,快餐简餐,120.25473,30.22874
97761771.0,恋家烘焙,,,18758866752,萧山区,振宁路929号,,美食,面包烘焙,120.264137,30.215595
97763813.0,巨丰棋牌,,,18814822108,萧山区,飞虹路1281号丰瑞北苑商铺,东南2门东侧,休闲娱乐,棋牌室,120.251018,30.224624
97768477.0,加米造型,,,13071816858,萧山区,盈丰路316-3号,,丽人,美发,120.249153,30.22456
97804152.0,vr主题乐园,市心北路店,,,市心北路,市心北路,,休闲娱乐,VR,120.26836,30.22483
97822055.0,星丝尚 护肤造型,,,82877669,萧山区,利丰路723号,,丽人,美发,120.256875,30.229999
97827662.0,汀味馆养生粥·米粉简餐,,,13372503253,萧山区,振宁路858号,,美食,米粉/米线,120.265937,30.215984
97843997.0,路人甲网吧,,,18758058257,萧山区,振宁路948号,,休闲娱乐,网吧/电竞,120.263477,30.216168
97902820.0,东池便当,钱江世纪城店,,13968887577,萧山区,利丰路467号,,美食,快餐简餐,120.24659,30.227
97930272.0,乾道足浴spa,,,15057131003,萧山区,民和路联合中心A座,,休闲娱乐,按摩/足疗,120.245092,30.231204
97942499.0,杭州加州阳光生话广场精装公寓,,,,市心北路,佳境天城天合苑,,酒店,经济型,120.26796,30.216839
97955692.0,萧桐土菜馆,,,83822177,市心北路,佳境天城境合苑,,美食,农家菜,120.26687,30.21892
98005582.0,百信面馆,炒菜、小吃,,13735489765,萧山区,宁围镇盈丰路403号,利一家园,美食,面馆,120.24755,30.227623
98013306.0,一醉食府,,,,萧山区,盈一村892号,,美食,其他中餐,120.264446,30.235546
98046692.0,足智足道,利丰路店,,83737251;15606813678,萧山区,利丰路675号,民和路与利丰路交叉口西北角,休闲娱乐,按摩/足疗,120.25533,30.22914
98059490.0,东北水饺,联合中心店,,15158075623,萧山区,萧山泰宏巷22号,联合中心,美食,饺子,120.254581,30.22968
98084448.0,老享吃,,,15382370363,市心北路,市心北路,,美食,快餐简餐,120.26836,30.22483
98086413.0,BOBO美发沙龙,,,82313195;15888803216,市心北路,皓月路178号万和国际一层商铺,,丽人,美发,120.256424,30.233286
98109533.0,安腾酒店公寓,,,13336166999,市心北路,市心北路1501号,,酒店,经济型,120.26426,30.229433
98115468.0,天猫小店,,,15314688837,市心北路,振宁路980-982号,,购物,超市/便利店,120.26282,30.21615
98137701.0,火老大麻辣香锅,,,13306527022,市心北路,宁围镇皓月路164号,,美食,干锅/香锅,120.25625,30.23271
98154370.0,老金老汤面馆,钱江世纪城店,,13735850343,市心北路,扬帆路506号,,美食,面馆,120.265654,30.226711
98166866.0,华联,飞虹路店,,13666808806,市心北路,宁围街道飞虹路1868号,,美食,自助餐,120.262896,30.229164
98188923.0,沙拉拉轻食,钱江世纪店,,18967100669,市心北路,宁围街道皓月路159号-7,,美食,西餐,120.255381,30.233395
98198473.0,老台門,美哉美城店,,13067891592,萧山区,飞虹路美哉美城农贸市场底商,,美食,江浙小吃,120.256653,30.225438
98199141.0,老陕西面馆,皓月路酷哥店,,13372405501,市心北路,宁围街道皓月路178号-2,,美食,陕菜,120.256487,30.23327
98201593.0,面包好了,钱江世纪城店,,18989865627,萧山区,利丰路489号,利一家园底商,美食,面包烘焙,120.247419,30.227118
98202068.0,留夫鸭,美哉美城店,,17767098665,萧山区,飞虹路钱江世纪城美哉美城农贸市场W3号商铺,,美食,卤味鸭脖,120.256298,30.22612
98205094.0,桃子家の日式美甲,,,18667370352,市心北路,振宁路港汇中心1号楼,地铁2号线振宁路站B口,丽人,美甲,120.267657,30.220455
98220904.0,美适臣健康管理(杭州)有限公司,,,82259397,市心北路,民和路600号大象国际中心A座10楼,,生活服务,公司企业,120.252915,30.234279
98232340.0,形体管理,,,,市心北路,钱江世纪城,,丽人,美容/SPA,120.257129,30.235769
98261541.0,珏品设计师酒店,,,87188666,萧山区,民和路481号钱江世纪城联合中心C座1楼,近地铁1号线飞虹路站C出口,酒店,高档型,120.25426,30.230442
98274123.0,聚百味鲜卤坊,,,15956343668,萧山区,飞虹路美哉美城农贸市场一楼44号,,美食,烤鸭,120.25676,30.225729
98274384.0,聚百味鲜卤坊,,,15956343668,萧山区,宁围街道飞虹路1540号209室,,美食,卤味鸭脖,120.256763,30.225737
98275518.0,赛蜜可,,,82256263,萧山区,飞虹路美哉美城农贸市场旁,,美食,面包烘焙,120.25678,30.225581
98295192.0,有滋有味烤鱼烧烤,,,15158087725,萧山区,飞虹路美哉美城农贸市场2楼,,美食,烤鱼,120.25683,30.225627
98309572.0,"设计师作品:地铁二号线出口佳境天城单身公寓,独立卫浴",房间编号:202,,4000660190,市心北路,市心北路737号,,其它,榛果民宿,120.2675,30.21722
98315061.0,小花小甲花甲粉,,,13735493535,萧山区,民和路491-3号,,美食,面馆,120.25541,30.230199
98333794.0,九门车卫,,,15355014522;18968031979,萧山区,利丰路丰北三苑西大门,西斯特姆世纪之星,爱车,美容洗车,120.25265,30.228919
98362696.0,家家健康药店,宁围店,,82916510,钱江世纪城,宁围街道利丰路656号,丰北二苑,医疗健康,药店,120.254748,30.228094
98370839.0,东北饺子坊,,,15988421926,萧山区,宁围街道利丰路415-2号,,美食,饺子,120.244476,30.227083
98376582.0,羊汤龙虾,,,,市心北路,市心北路,,美食,小龙虾,120.26836,30.22483
98391556.0,嵊州小吃,诺德美食广场店,,15779320537,市心北路,皓月路159-22号,诺德财富中心美食广场负一楼,美食,江浙小吃,120.255235,30.233459
98407948.0,果真好水果仓库,,,18967122753,萧山区,宁围街道文明路534号,,美食,水果店,120.264597,30.212933
98428548.0,地铁口优质绿化小区,,,4000660190,萧山区,宁围街道市心北路与振宁路交汇,,其它,榛果民宿,120.266056,30.216165
98433338.0,Mì·Tea弥茶,博地中心店,,17767268623,市心北路,宁围镇博地中心一楼,,美食,茶饮果汁,120.25222,30.235561
98488118.0,谷卡淘宝摄影,,,15857191223,钱江世纪城,民和路491-2-1号,,生活服务,公司企业,120.254918,30.230001
98488734.0,天猫小店·万家乐超市,,,18069782262,萧山区,利丰路445号,,购物,超市/便利店,120.245667,30.226921
98520431.0,丰东果园,,,,萧山区,振宁路926-2号,丰东花苑南门保安亭,美食,水果店,120.264199,30.21625
98534684.0,福宠屋宠物生活馆,,,18068796161,钱江世纪城,利丰路619号,,宠物,宠物店,120.253563,30.228468
98606924.0,克丽缇娜,春和钱塘店,,85383161,萧山区,民和路401号,春和钱塘底商,丽人,皮肤管理,120.257862,30.226669
98634903.0,驿公里洗车,,,4006730088,市心北路,民营企业发展大厦,,爱车,美容洗车,120.256314,30.23141
98657464.0,菲力伟健身,奥城店,,,市心北路,永晖路548号,,运动健身,健身房,120.25966,30.230283
98659328.0,地铁口、近奥体、K歌麻将高层精装218方大宅,,,4000660190,市心北路,宁围街道市心北路,,其它,榛果民宿,120.26796,30.21684
98672332.0,蔓时光私房烘焙,,,15958185388,市心北路,市心北路737号117室,,美食,面包烘焙,120.26797,30.216746
98695361.0,宴江南·江南名灶,钱江世纪城店,,83507979;82637799,钱江世纪城,市心北路与万和国际交叉口,,美食,浙菜,120.256204,30.23271
98723554.0,重庆鸡公煲,,,15158171281,萧山区,佳丰北苑,,美食,川菜馆,120.247172,30.223695
98733711.0,瑜舍连锁瑜伽,飞虹路店,,4008206062,萧山区,宁围镇民和路411号金昌春和钱塘5幢,,丽人,瑜伽,120.257392,30.227215
98735081.0,瑜舍连锁瑜伽,振宁路店,,4008206062,市心北路,市心北路777号,佳境天城成合苑8号楼,丽人,瑜伽,120.267636,30.217106
98745183.0,超给力,,,15306814315,萧山区,飞虹路,,休闲娱乐,轰趴馆,120.255193,30.224949
98766283.0,芝心乐披萨,利丰路店,,15391723070,萧山区,利丰路425号,,美食,西餐,120.245311,30.226809
98770251.0,祥禾包子,,,13968624855,萧山区,宁围街道文明路570号一楼,,美食,包子,120.26304,30.2129
98771598.0,g20奥体独立公寓近地铁近机场高速2,,,4000660190,萧山区,民和路486号,,其它,榛果民宿,120.2567,30.23004
98771928.0,奥体博览中心g20主会场近景区西湖盈丰路地铁口,,,4000660190,市心北路,利丰路利257号,,其它,榛果民宿,120.245626,30.227927
98772205.0,mr.z三号两室房近盈丰路地铁g20,,,4000660190,市心北路,利丰路利257号,,其它,榛果民宿,120.245681,30.227774
98777945.0,天缘面馆,,,18039366333,萧山区,宁围街道盈丰路309号,,美食,面馆,120.248195,30.224205
98780827.0,希尔顿欢朋酒店·咖啡吧,,,13867493013,市心北路,皓月路186号,诺德财富中心B栋4楼,美食,咖啡厅,120.255093,30.233761
98786749.0,杨国福麻辣烫,奥体店,,13093757006,钱江世纪城,金鸡路2390号协和辉丰大厦一楼,萧山区华美达安可酒店门口向西10米再右拐70米,美食,麻辣烫,120.239511,30.236381
98789849.0,dh,民和店,,13185719108,萧山区,民和路500号民企大厦A座16楼,,美食,快餐简餐,120.255758,30.230541
98794019.0,饭点面·饭·饺,,,18758864103,萧山区,利丰路489-2,,美食,快餐简餐,120.247503,30.227227
98806730.0,指匠吉他培训,,,,萧山区,飞虹路丰瑞北苑11幢,,教育培训,音乐,120.250715,30.224823
98821474.0,芋颜季TaroStudio,钱江世纪城店,,18767193180,萧山区,宁围街道利一村利丰路469-2号,,美食,甜品,120.246698,30.226912
98839941.0,小心鸡&汉堡小吃拌饭饮品,,,17767132922,萧山区,利丰路473号,,美食,炸鸡炸串,120.246255,30.226403
98848024.0,缪斯Muise美容美甲美睫,,,18257196220,萧山区,飞虹路佳丰北苑1095,南门旁,丽人,美甲,120.246763,30.223678
98850491.0,世纪华联超市,利丰路店,,15168456891,萧山区,宁围街道利丰路635号,,购物,超市/便利店,120.254012,30.22847
98874471.0,西派健身V+会所,美哉美城店,,82758961,萧山区,飞虹路美哉美城农贸市场4楼,,运动健身,游泳馆,120.256409,30.225285
98896849.0,X-PARK游泳健身,,,18357149699,萧山区,金昌·春和钱塘美哉美城农贸市场四楼,,运动健身,健身房,120.256184,30.226528
98906949.0,仙女屋美甲美睫工作室,港汇中心店,,15958185663;15988195663,市心北路,振宁路地铁口B出口港汇中心2号楼811A室,,丽人,美甲,120.268007,30.220755
98933521.0,超级檬,大象国际店,,17706535019,市心北路,宁围街道民和路600号大象国际中心1单元2601室,,美食,茶饮果汁,120.253153,30.233969
98939673.0,三菱电机中央空调,,,,萧山区,钱江世纪城联合中心北区C座1001室,,家装,家用电器,120.256078,30.230069
98947516.0,途虎养车工场店,利丰路店,,82313686,萧山区,利丰路利一家园441号商铺,,爱车,维修保养,120.245643,30.226824
98950113.0,清肌时光科技美肤中心,,,13372557729,萧山区,盈丰路333号二楼,钱江世纪城幼儿园佳丰北苑东大门,丽人,皮肤管理,120.247947,30.225241
98994178.0,吉阿婆,,,13757124321,萧山区,振宁路855号,,美食,麻辣烫,120.26599,30.21602
99079826.0,七果仓仓库水果,丰北二苑店,,13157180108,萧山区,利丰路680号丰北二苑一楼,,美食,水果店,120.255452,30.228337
99271727.0,51风尚酒店-大堂吧,,,,市心北路,市心北路737号51风尚酒店,,休闲娱乐,清吧,120.2682,30.216802
99423704.0,美之家玻璃装饰,,,,市心北路,皓月路184,,家装,建材,120.256599,30.233412
99480176.0,汉恺布艺,,,18958153106,萧山区,振宁路1483号,,家装,床品家纺,120.251187,30.214613
99576856.0,佳瑞家纺,,,,萧山区,文明路628号,,家装,床品家纺,120.260447,30.213045
99593392.0,吉客隆大卖场,,,,钱江世纪城,利二路利二花苑,,购物,超市/便利店,120.244644,30.235247
99602973.0,两个小朋友精品童装,,,,市心北路,鸿宁路与鸿达路交叉口南200米,,亲子,儿童服饰,120.260596,30.235012
99791211.0,凤铝门窗,振宁路,,15968104734,钱江世纪城,宁围镇振宁路945号,,家装,门窗,120.263889,30.215625
99824120.0,链家,佳境天城店,,87162861,市心北路,市心北路861号,,生活服务,房产中介,120.268237,30.219466
99839242.0,辰诺门窗,,,13282110030,萧山区,文明路558号附近,,家装,门窗,120.26368,30.212868
99860373.0,几物男装设计工作室,,,,萧山区,佳境天城成合苑4栋2单元1403,,丽人,美发,120.266115,30.216166
99864581.0,玲华门窗装饰,,,18758564333;15988855630,萧山区,振宁路955号,,家装,门窗,120.263431,30.215622
99902826.0,乐乐羊绒,洪叶云台专卖店,,13235714115,钱江世纪城,宁围镇文明路553号,,购物,服装,120.263791,30.212867
99903017.0,海希房产,,,15397198889,萧山区,金鸡路与飞虹路交叉口东北150米,,生活服务,房产中介,120.255159,30.225706
99905660.0,链家,飞虹路,,87328013,萧山区,宁围镇钱江世纪城飞虹路1751号,,生活服务,房产中介,120.260295,30.227771
100035530.0,奥体博览城钱江世纪酒店公寓,,,15168498305,萧山区,宁围街道钱江世纪城地铁F口100米,,酒店,公寓式酒店,120.253419,30.213054
100060195.0,全屋装饰,,,18268061270,萧山区,仁孝路与飞虹路交叉口北50米,,家装,家饰餐厨,120.251125,30.224386
100068661.0,杭州萧山保强消防器材经营部,,,82864273;18268848022,萧山区,文明路621号附近,,家装,建材,120.260447,30.213045
100076493.0,浪发电动车行,,,,市心北路,文明路463号附近,,购物,自行/电动车及配件,120.268603,30.212665
100095289.0,HDD洗衣,,,18814825507,市心北路,宁围街道永晖路佳境天城境合苑,,生活服务,洗衣店,120.267075,30.216616
100122428.0,水泥胶泥,,,,市心北路,文明路495号附近,,家装,建材,120.26727,30.212829
100157332.0,恒逸窗帘,,,13567193558,市心北路,宁围镇富业巷1号浙江民营企业发展大厦B幢4楼406,,家装,窗帘,120.260596,30.235012
100158661.0,港式快捷洗衣,,,18814825507,市心北路,振宁路786-6号附近,,生活服务,洗衣店,120.267212,30.216523
100195444.0,苏西家,萧山店,,,市心北路,宁围镇振宁路813号,,亲子,母婴购物,120.267358,30.215405
100195871.0,从乾地产,,,82311262,市心北路,宁围镇市心北路新市民公寓3幢1单元最西边商铺,,生活服务,房产中介,120.260193,30.233141
100195918.0,我爱我家,,,,市心北路,宁围镇振宁路佳境天城836号,,生活服务,房产中介,120.266421,30.216145
100195971.0,华廊装饰,,,,市心北路,文明路502号附近,,家装,建材,120.266914,30.212828
100197494.0,叮咚屋,,,,市心北路,振宁路地铁站,,购物,超市/便利店,120.269246,30.217772
100201576.0,丰北三苑停车场,出入口,,,萧山区,利丰路北150米,,爱车,停车场,120.254501,30.229525
100211354.0,断桥铝门窗专卖,,,,萧山区,飞虹路1093号附近,,家装,门窗,120.246739,30.223579
100227516.0,欣乐门窗,,,13738072499,萧山区,文明路591号附近,,家装,门窗,120.261944,30.212918
100238964.0,鑫钰灯饰,,,,萧山区,宁围街道盈丰路421号,利一家园,家装,灯饰照明,120.247545,30.228159
100253297.0,唯宝母婴生活馆,,,18626872340,萧山区,宁围镇钱江世纪城丰二高层安置小区丰瑞北苑,,亲子,婴儿游泳,120.251544,30.224635
100274417.0,博傲地产,,,,萧山区,宁围镇世纪晶钻2栋1606,,生活服务,房产中介,120.256615,30.23057
100337763.0,中国电信,全网通手机营业厅,,17742008340,市心北路,飞虹路1781号,,生活服务,电信营业厅,120.261265,30.2285
100372036.0,中石化bp澳托猫汽服,,,82835525,市心北路,市心北路528-648号附近,,爱车,加油站,120.269128,30.215087
100377124.0,淋浴房滑动门不锈钢,,,13906715298,钱江世纪城,振宁路五丰冷食旁,,家装,家用五金,120.264639,30.215599
100385041.0,老赵丧葬用品,,,15157131150;15382380879,萧山区,文明路428号附近,,生活服务,殡葬用品,120.25322,30.213209
100413624.0,美居乐窗帘布艺墙纸照明,,,18072961600,萧山区,利丰路与民和路交叉口西南200米,,家装,家用电器,120.254855,30.228166
100414020.0,游星门窗,,,13777422655,萧山区,文明路556号附近,,家装,门窗,120.263741,30.212858
100420190.0,萍墨食品商行,,,18268087513,萧山区,利丰路与盈丰路交叉口南150米,,美食,水果生鲜,120.2481,30.22574
100423179.0,新千年板材,顺丰家园东南,,13738169722,萧山区,宁围街道丰东村文明路547-548号,,家装,木材板材,120.263939,30.21303
100426900.0,大象国际中心停车场,出入口,,,市心北路,民和路600号附近,,爱车,停车场,120.25297,30.23433
100459693.0,永味食品,,,,市心北路,文明路633号附近,,美食,更多食品保健,120.260254,30.212867
100515028.0,新鲜水果,,,15168213260,萧山区,盈丰路316-2号附近,,美食,水果店,120.24908,30.224759
100528274.0,捷居房产,,,15157119484,萧山区,宁围镇文明路595号,,生活服务,房产中介,120.261904,30.213026
100528840.0,健身游泳俱乐部,,,15669069948,萧山区,民和路钱江世纪城,,运动健身,健身房,120.254372,30.231634
100570936.0,百家佳旺快餐店,,,,市心北路,皓月路170号附近,,美食,快餐简餐,120.255975,30.233141
100607849.0,优特淋浴房移门,,,13071852189,萧山区,宁围镇钱江世纪城飞虹路1285号,丰瑞北苑商铺,家装,门窗,120.251207,30.224526
100613727.0,复印打印快照,,,,萧山区,振宁路1503号附近,,生活服务,快照摄影,120.250911,30.214325
100627933.0,缘定今生婚礼策划,,,4000908610-248959,萧山区,文明路北100米,,结婚,婚礼策划,120.252154,30.213721
100677978.0,吉瑞南苑883建材五金店,,,,萧山区,文明路与盈丰路交叉口东100米,,家装,家用五金,120.249775,30.213503
100679739.0,中正地产,,,,萧山区,春和钱塘飞虹路1531号,,生活服务,房产中介,120.25609,30.226001
100688270.0,兴尚门窗,,,18668039558,萧山区,盈丰路333号,,家装,门窗,120.24798,30.22538
100702546.0,爱联地产,,,82696333,萧山区,宁围镇民和路453号,,生活服务,房产中介,120.256422,30.2287
100707239.0,色相纹身工作室,,,18258299929,市心北路,市心路佳境天城天合苑1号楼605室,,丽人,纹身,120.26819,30.21667
100715763.0,贝玛教育,,,18005783303,萧山区,宁围镇民和路联合中心D座8楼,,教育培训,中小学综合辅导,120.255406,30.230199
100726650.0,燕云名店,,,15372089220,萧山区,宁围街道祥腾财富中心民和路484号,,丽人,美发,120.256438,30.230128
100765076.0,咂味小吃,,,,萧山区,盈丰路与飞虹路交叉口西北100米,,美食,川菜家常菜,120.248214,30.224123
100790966.0,路逸轮胎经营部,,,,萧山区,文明路832号,,爱车,配件厂商,120.252138,30.21327
100826634.0,爱益奇全脑早教中心,,,,市心北路,宁围镇振宁路813号禾动漫三楼,,教育培训,综合早教,120.267342,30.215297
100885302.0,萧山图书馆,丰北村分馆,,,市心北路,萧钱线附近,,休闲娱乐,图书馆,120.258174,30.232094
100921540.0,雯宇裤业,,,,市心北路,盈丰农副产品综合市场,,购物,服装,120.260596,30.235012
100922712.0,诚和房产,,,,钱江世纪城,丰北一苑,浙江民营企业发展大厦南,生活服务,房产中介,120.257553,30.228536
100941780.0,廖国双批发部,,,,钱江世纪城,振宁路864号附近,,购物,批发店,120.265968,30.216024
100972730.0,夕紫荷,,,,市心北路,宁围镇民和路500号民营企业大厦a幢16层,,购物,其他服饰鞋包,120.256128,30.230961
101020708.0,标书制作处,,,,市心北路,振宁路788号附近,,生活服务,更多生活服务,120.267418,30.216135
101097141.0,顶尖时尚,,,87073970,市心北路,经济技术开发区民和路浙江民营企业发展大厦A座3楼,,丽人,美发,120.256358,30.230976
101211444.0,宁国街道兽医站,,,,萧山区,文明路513号,,宠物,宠物店,120.26651,30.212852
101214143.0,童话烘焙屋,,,13735801824,萧山区,利丰路丰北二苑底商,,美食,面包烘焙,120.255944,30.228635
101228807.0,口碑地产,飞虹路,,,萧山区,民和路与飞虹路交叉口西150米,,生活服务,房产中介,120.256904,30.226241
101232616.0,21世纪不动产,飞虹路,,88006825,市心北路,民和路与飞虹路交叉口西100米,,生活服务,房产中介,120.257277,30.226373
101233935.0,诺德财富中心停车场,出入口,,,市心北路,民和路与皓月路交叉口东北200米,,爱车,停车场,120.254929,30.233452
101233944.0,名仕之家,飞虹路,,,萧山区,民和路与飞虹路交叉口西北100米,,生活服务,更多生活服务,120.25761,30.226575
101236676.0,冠泰地产,,,13805750877,萧山区,金鸡路与飞虹路交叉口东北200米,,生活服务,房产中介,120.25531,30.22576
101238724.0,顺昌地产,飞虹路,,,萧山区,钱江世纪城飞虹路春和钱塘小区1567号,,生活服务,房产中介,120.256986,30.226272
101267731.0,晓丽箱包,,,,市心北路,盈丰街与萧钱线交叉口东200米,,购物,箱包,120.25999,30.235035
101279480.0,布格窗帘,,,13105715319,萧山区,振宁路949号,,家装,窗帘,120.263687,30.215672
101280274.0,渔多多渔具,,,,萧山区,宁围镇丰瑞南苑北门,,购物,运动户外,120.253191,30.214808
101368940.0,五金防水,,,,市心北路,市心北路与文明路交叉口西150米,,家装,家用五金,120.268318,30.212703
101517039.0,天兴汽车生活馆,,,15968870555,萧山区,文明路826号,,爱车,美容洗车,120.25245,30.213129
101520718.0,尚尚美甲工作室,,,,萧山区,民和路519号,,丽人,美甲,120.254133,30.23087
101522458.0,爱口福东北特色水饺,利丰路店,,13357191389,萧山区,利丰路650号,,美食,水饺,120.254577,30.228132
101525130.0,华凯保险,,,,市心北路,宁围镇民和路600号大象国际中心2单元15楼,,生活服务,保险公司,120.253215,30.234212
101535802.0,宏泰五金店,,,18067932111,萧山区,利丰路644号,,家装,家用五金,120.254489,30.228065
101540277.0,杰宝大王电动车,,,,市心北路,文明路465号,,购物,自行/电动车及配件,120.268555,30.212658
101555332.0,明前茶叶高粱吐酒,,,,市心北路,盈丰街盈一外来人员公寓西北50米,,购物,烟酒茶叶,120.259986,30.234453
101562850.0,戴美仙服装,,,,市心北路,鸿宁路与鸿达路交叉口南200米,,购物,服装,120.260579,30.235012
101566805.0,夏尚服饰,,,,萧山区,宁围镇民和路481号联合中心21楼,,购物,服装,120.255406,30.230199
101584815.0,桥头烟行,,,18958111311,钱江世纪城,利丰路599号,,购物,烟酒茶叶,120.253333,30.228266
101589012.0,透蜜体验馆,,,,萧山区,宁围镇佳丰北苑盈丰路333-2号,,丽人,瘦身纤体,120.247981,30.22538
101598216.0,通美教育,,,18072935869,萧山区,钱江世纪城民和路478号,,教育培训,中小学综合辅导,120.256616,30.230037
101599184.0,小红男装,,,,市心北路,鸿宁路与鸿达路交叉口南200米,,购物,服装,120.260597,30.235012
101599254.0,沈娟女装店,,,,市心北路,鸿宁路与鸿达路交叉口南200米,,购物,服装,120.260582,30.235012
101621260.0,开元名都商务会所KTV,,,17085227306,萧山区,北干国泰大厦,,休闲娱乐,娱乐会所,120.256,30.22946
101623000.0,不可定义工作室,,,18698571236,萧山区,利丰路674号,,丽人,美甲,120.255061,30.228333
101646964.0,五粮醇,,,,市心北路,文明路490号附近,,购物,烟酒茶叶,120.267359,30.21282
101670572.0,步步乐实木地板,,,,萧山区,利一家园,博奥路东,家装,地板,120.243926,30.228151
101680806.0,佳敬食品商行,,,,萧山区,振宁路868号,,美食,更多食品保健,120.265934,30.215917
101681888.0,惠品科技,,,,萧山区,钱江世纪城民和路501号联合中心D座9楼,,丽人,瘦身纤体,120.255406,30.230199
101685274.0,豪业造型,,,15157166636,萧山区,宁围镇振宁路923号,,丽人,美发,120.264418,30.215661
101767177.0,快卖快买地产,,,,市心北路,宁围镇海杰德大厦一楼,,生活服务,房产中介,120.269351,30.213855
101771315.0,牛元瓷砖胶,,,,萧山区,利丰路453号附近,,家装,瓷砖石材,120.246293,30.226932
101805374.0,秀英羊绒店,,,,市心北路,鸿宁路与鸿达路交叉口南200米,,购物,服装,120.260597,30.235012
101805505.0,红蜻蜓,,,,市心北路,鸿宁路与鸿达路交叉口南200米,,购物,鞋靴,120.260596,30.235012
101805560.0,五金日月百货,,,,市心北路,盈丰农副产品综合市场西南,盈丰街,家装,家用五金,120.260606,30.235345
101805636.0,雁之源超市,江南丽锦店,,13326141038;15968836846,市心北路,宁围街道市心北路1397号江南丽锦小区东北门,,购物,超市/便利店,120.265692,30.227173
101806064.0,定做推拉门淋浴房,,,,萧山区,飞虹路1303号附近,,家装,厨卫洁具,120.251511,30.224929
101806129.0,专卖小鸡小鸭,,,13165989110,市心北路,鸿宁路与鸿达路交叉口南200米,,美食,更多食品保健,120.260596,30.235012
101806253.0,佳美理发,,,13071805615,市心北路,鸿宁路与鸿达路交叉口南200米,,丽人,美发,120.260596,30.235012
101834525.0,千岛湖鱼庄,飞虹路店,,82257605;15700065752,萧山区,飞虹路1546号,美哉美城农贸市场二楼,美食,苏浙菜,120.256501,30.225557
101879320.0,X-COOL,钱江世纪城体验店,,82535876,萧山区,民和路483号联合中心A座3楼,民企大厦对面,运动健身,健身房,120.255183,30.229908
101926958.0,小李土菜馆,,,18368112351,市心北路,市心北路557号海杰德大厦底商,,美食,农家菜,120.268955,30.213966
101934012.0,百意空间设计,,,15158061300,市心北路,民和路与皓月路交叉口大象国际中心,,家装,半包装修,120.253209,30.234203
101936437.0,川湘居,萧山店,,13857119298,市心北路,市心北路563号551-27,,美食,川菜馆,120.268987,30.213949
101978554.0,云南过桥米线利丰路店,,,18357156710,萧山区,宁围街道利丰路663号,,美食,米粉/米线,120.253815,30.228176
101982166.0,绿汀琴行钢琴·古筝·声乐·吉他·尤克里里·架子鼓培训,,,4000303096-28738,萧山区,宁围街道丰瑞北苑盈丰路294号（盈丰路和飞虹路交叉口）,盈丰路和飞虹路交叉口,教育培训,音乐,120.24908,30.22414
101990631.0,杭雅手机直营店,宁围店,,,萧山区,文明路586号附近,,购物,数码产品,120.261487,30.212839
102028357.0,VMUSE STUDIO,港汇中心店,微妙工作室,13018920911;15558752955,市心北路,市心北路绿都港汇中心1号楼1908A,地铁二号线振宁路站B出口旁,丽人,SPA美体,120.26808,30.221141
102029174.0,欢乐客,披萨寿司小吃,,18258192091,萧山区,丰二村振宁路1419号,,美食,西餐,120.252903,30.214953
102061272.0,学思舞蹈学校,钱江世纪城校区,,13173677186,萧山区,民和路联合中心B座3楼,钱江世纪城管委会附近,教育培训,其他运动培训,120.25518,30.230415
102065870.0,皇家牛排饭,,,15990494132,市心北路,皓月路诺德美食城159-12号,诺德财富中心负一楼,美食,快餐简餐,120.255293,30.233713
102086800.0,西湖国际会议中心/loft落地窗/西湖边/地铁口/近机场温馨三室,,,4000660190,市心北路,宁围街道鸿宁路2327号,,其它,榛果民宿,120.26776,30.22017
102098535.0,tata婚纱摄影,,,4000908610-163594,市心北路,萧山飞虹路1227号,,结婚,婚纱摄影,120.249861,30.224035
102100020.0,利华汽修携众养车,利二店,,17706528053,钱江世纪城,宁围镇利二路138号,,爱车,维修保养,120.242521,30.235024
102103224.0,一体机眉山线上2,,,,萧山区,飞虹路22号,,美食,西餐,120.250347,30.224017
102120344.0,全家FamilyMart,萧山诺德财富中心店,,,市心北路,皓月路159号诺德财富中心,,购物,超市/便利店,120.255402,30.233532
102124445.0,罗罐中米粉,钱江世纪城店,,15990506658;18058706561,市心北路,宁围街道民和路456号,,美食,快餐简餐,120.25698,30.2292
102127478.0,膳食管家,,,18858263242,市心北路,宁围街道市心北路563号551-8,,美食,创意菜,120.269234,30.213915
102132677.0,张飞烧烤,,,15356103030;15156885774,萧山区,利丰路631号,,美食,烤串,120.253645,30.228485
102137893.0,东北一家人,佳境天城店,,82759697,市心北路,市心北路736号,,美食,东北菜,120.26822,30.21685
102164117.0,丧葬用品,,,13357137975,萧山区,文明路512号,,生活服务,殡葬用品,120.266556,30.212852
102168896.0,四季恒温泳池,,,,市心北路,佳境天城成合苑,,运动健身,游泳馆,120.26722,30.217874
102189037.0,N+ Music Bar,,,13282403700,市心北路,皓月路178号万和国际酒店二楼,,休闲娱乐,清吧,120.25636,30.23329
102190942.0,美刻游泳健身中心,,,15888870421,市心北路,博地中心,,运动健身,健身房,120.252472,30.23522
102229986.0,涵杰棋牌,,,,萧山区,振宁路1427号附近,,休闲娱乐,棋牌室,120.252888,30.214792
102237026.0,宁围镇丰北村星光老年之家,,,,市心北路,市心北路与萧钱线交叉口南200米,,休闲娱乐,老年活动中心,120.258078,30.232048
102289595.0,恒彩装饰,萧山店,,4000126590-14166,市心北路,港汇中心2号楼30层,,家装,全包装修,120.267908,30.220957
102292247.0,生龙面馆,钱江世纪城店,,82162829,萧山区,宁围街道利丰路691号,,美食,面馆,120.2565,30.227841
102304877.0,恒泰图文,,,13625811655,钱江世纪城,宁围镇钱江世纪城民和路480号,,生活服务,图文快印,120.25637,30.230156
102354795.0,杭州和家环境科技有限公司,,,83199927,萧山区,宁围镇民和路联合中心C幢19楼,,生活服务,公司企业,120.254325,30.230262
102362346.0,力动健身,,,18072961986,钱江世纪城,奔竞大道利二花苑,,运动健身,健身房,120.244647,30.235246
